{
  "基隆市": [
    {
      "name": "基隆分行",
      "link": "https://www.google.com.tw/maps/place/200%E5%9F%BA%E9%9A%86%E5%B8%82%E4%BB%81%E6%84%9B%E5%8D%80%E4%BB%81%E4%BA%8C%E8%B7%AF255%E8%99%9F/@25.1297428,121.7402343,17z/data=!4m5!3m4!1s0x345d4e3e2a6a2999:0xfab7014e4e0e70e8!8m2!3d25.129738!4d121.742423",
      "address": "基隆市仁愛區仁二路255號",
      "tel": "(02)24284181",
      "lat": 25.1297428,
      "lon": 121.7402343
    },
    {
      "name": "東基隆分行",
      "link": "https://www.google.com.tw/maps/place/201%E5%9F%BA%E9%9A%86%E5%B8%82%E4%BF%A1%E7%BE%A9%E5%8D%80%E4%BF%A1%E4%B8%80%E8%B7%AF143%E8%99%9F/@25.1294258,121.7449083,17z/data=!3m1!4b1!4m5!3m4!1s0x345d4e3f24e8fced:0x9efa81b4306f712b!8m2!3d25.129421!4d121.747097",
      "address": "基隆市信義區信一路143號",
      "tel": "(02)24283111",
      "lat": 25.1294258,
      "lon": 121.7449083
    }
  ],
  "台北市": [
    {
      "name": "館前分行",
      "link": "https://www.google.com.tw/maps/place/100%E5%8F%B0%E5%8C%97%E5%B8%82%E4%B8%AD%E6%AD%A3%E5%8D%80%E9%A4%A8%E5%89%8D%E8%B7%AF77%E8%99%9F/@25.0436707,121.512997,17z/data=!3m1!4b1!4m5!3m4!1s0x3442a9735b9a6dcd:0x362b053e278c2480!8m2!3d25.0436707!4d121.5151857",
      "address": "台北市中正區館前路77號",
      "tel": "(02)23315528",
      "lat": 25.0436707,
      "lon": 121.512997
    },
    {
      "name": "城內分行",
      "link": "https://www.google.com.tw/maps/place/100%E5%8F%B0%E5%8C%97%E5%B8%82%E4%B8%AD%E6%AD%A3%E5%8D%80%E8%A1%A1%E9%99%BD%E8%B7%AF87%E8%99%9F/@25.04233,121.5084373,17z/data=!3m1!4b1!4m5!3m4!1s0x3442a90ba5563535:0x5cbc9e1a34acef22!8m2!3d25.04233!4d121.510626",
      "address": "台北市中正區衡陽路87號",
      "tel": "(02)23311041",
      "lat": 25.04233,
      "lon": 121.5084373
    },
    {
      "name": "台大分行",
      "link": "https://www.google.com.tw/maps/place/100%E5%8F%B0%E5%8C%97%E5%B8%82%E4%B8%AD%E6%AD%A3%E5%8D%80%E4%B8%AD%E5%B1%B1%E5%8D%97%E8%B7%AF7%E8%99%9F/@25.0402741,121.5169704,17z/data=!3m1!4b1!4m5!3m4!1s0x3442a97438d6743d:0xb8f929882567b92!8m2!3d25.0402741!4d121.51",
      "address": "台北市中正區中山南路7號地下一樓",
      "tel": "(02)23568071",
      "lat": 25.0402741,
      "lon": 121.5169704
    },
    {
      "name": "南門分行",
      "link": "https://www.google.com.tw/maps/place/%E5%90%88%E4%BD%9C%E9%87%91%E5%BA%AB%E9%8A%80%E8%A1%8C+%E5%8D%97%E9%96%80%E5%88%86%E8%A1%8C/@25.0308134,121.5178727,17z/data=!3m1!4b1!4m5!3m4!1s0x3442a99957da68c1:0x3ef7127db855dc6b!8m2!3d25.0308134!4d121.5200614",
      "address": "台北市中正區羅斯福路一段97號",
      "tel": "(02)23966363",
      "lat": 25.0308134,
      "lon": 121.5178727
    },
    {
      "name": "大直分行",
      "link": "https://www.google.com.tw/maps/place/%E5%90%88%E4%BD%9C%E9%87%91%E5%BA%AB%E9%8A%80%E8%A1%8C+%E5%A4%A7%E7%9B%B4%E5%88%86%E8%A1%8C/@25.0828068,121.5379232,17z/data=!3m1!4b1!4m5!3m4!1s0x3442ac0301405baf:0x27b16c452c9f8ead!8m2!3d25.0828068!4d121.5401119",
      "address": "台北市中山區北安路409號(通北街65巷7號門)",
      "tel": "(02)85099188",
      "lat": 25.0828068,
      "lon": 121.5379232
    },
    {
      "name": "延平分行",
      "link": "https://www.google.com.tw/maps/place/103%E5%8F%B0%E5%8C%97%E5%B8%82%E5%A4%A7%E5%90%8C%E5%8D%80%E5%8D%97%E4%BA%AC%E8%A5%BF%E8%B7%AF301%E8%99%9F/@25.053531,121.5063703,17z/data=!3m1!4b1!4m5!3m4!1s0x3442a913d843ece7:0x92712971ba92f21e!8m2!3d25.053531!4d121.5",
      "address": "台北市大同區南京西路301號",
      "tel": "(02)25554111",
      "lat": 25.053531,
      "lon": 121.5063703
    },
    {
      "name": "大稻埕分行",
      "link": "https://www.google.com.tw/maps/place/103%E5%8F%B0%E5%8C%97%E5%B8%82%E5%A4%A7%E5%90%8C%E5%8D%80%E9%87%8D%E6%85%B6%E5%8C%97%E8%B7%AF%E4%BA%8C%E6%AE%B567%E8%99%9F/@25.0557914,121.5120138,17z/data=!3m1!4b1!4m5!3m4!1s0x3442a96b34aa2bb7:0xa880efcb79487a83!8m2!3",
      "address": "台北市大同區重慶北路二段67號",
      "tel": "(02)25568111",
      "lat": 25.0557914,
      "lon": 121.5120138
    },
    {
      "name": "民族分行",
      "link": "https://www.google.com.tw/maps/place/103%E5%8F%B0%E5%8C%97%E5%B8%82%E5%A4%A7%E5%90%8C%E5%8D%80%E6%89%BF%E5%BE%B7%E8%B7%AF%E4%B8%89%E6%AE%B5277%E8%99%9F/@25.072865,121.5171673,17z/data=!3m1!4b1!4m5!3m4!1s0x3442a94949b422b7:0x8ca23c585786c5d1!8m2!3d25.07286",
      "address": "台北市大同區承德路三段277號",
      "tel": "(02)25962271",
      "lat": 25.072865,
      "lon": 121.5171673
    },
    {
      "name": "雙連分行",
      "link": "https://www.google.com.tw/maps/place/103%E5%8F%B0%E5%8C%97%E5%B8%82%E5%A4%A7%E5%90%8C%E5%8D%80%E6%B0%91%E7%94%9F%E8%A5%BF%E8%B7%AF113%E8%99%9F/@25.0575427,121.5165807,17z/data=!4m5!3m4!1s0x3442a96a12240b9b:0x33c8548f6aef3f3b!8m2!3d25.0575427!4d121.5187694",
      "address": "台北市大同區民生西路113號",
      "tel": "(02)25577151",
      "lat": 25.0575427,
      "lon": 121.5165807
    },
    {
      "name": "大同分行",
      "link": "https://www.google.com.tw/maps/place/103%E5%8F%B0%E5%8C%97%E5%B8%82%E5%A4%A7%E5%90%8C%E5%8D%80%E6%89%BF%E5%BE%B7%E8%B7%AF%E4%B8%89%E6%AE%B510%E8%99%9F/@25.0637934,121.5158952,17z/data=!3m1!4b1!4m5!3m4!1s0x3442a946cca9edfd:0x4b6fbcd4f42bd586!8m2!3d25.06379",
      "address": "台北市大同區承德路三段10號",
      "tel": "(02)25932323",
      "lat": 25.0637934,
      "lon": 121.5158952
    },
    {
      "name": "南京東路分行",
      "link": "https://www.google.com.tw/maps/place/10491%E5%8F%B0%E5%8C%97%E5%B8%82%E4%B8%AD%E5%B1%B1%E5%8D%80%E5%8D%97%E4%BA%AC%E6%9D%B1%E8%B7%AF%E4%B8%80%E6%AE%B598%E8%99%9F/@25.0518739,121.5239843,17z/data=!4m5!3m4!1s0x3442a966053b9e45:0x3e84c9ee20a49486!8m2!3d25.05",
      "address": "台北市中山區南京東路一段98號",
      "tel": "(02)25623150",
      "lat": 25.0518739,
      "lon": 121.5239843
    },
    {
      "name": "五洲分行",
      "link": "https://www.google.com.tw/maps/place/10491%E5%8F%B0%E5%8C%97%E5%B8%82%E4%B8%AD%E5%B1%B1%E5%8D%80%E6%B0%91%E7%94%9F%E6%9D%B1%E8%B7%AF%E4%BA%8C%E6%AE%B5125%E8%99%9F/@25.058108,121.5299443,17z/data=!3m1!4b1!4m5!3m4!1s0x3442a95e8f3edd9b:0x180819fbede45516!8m2",
      "address": "台北市中山區民生東路二段125號",
      "tel": "(02)25113880",
      "lat": 25.058108,
      "lon": 121.5299443
    },
    {
      "name": "城東分行",
      "link": "https://www.google.com.tw/maps/place/10491%E5%8F%B0%E5%8C%97%E5%B8%82%E4%B8%AD%E5%B1%B1%E5%8D%80%E6%9D%BE%E6%B1%9F%E8%B7%AF87%E8%99%9F/@25.0504527,121.5310176,17z/data=!3m1!4b1!4m5!3m4!1s0x3442a9616f8f363b:0x8406101c2798c513!8m2!3d25.0504527!4d121.5332063",
      "address": "台北市中山區松江路87號",
      "tel": "(02)25070111",
      "lat": 25.0504527,
      "lon": 121.5310176
    },
    {
      "name": "民權分行",
      "link": "https://www.google.com.tw/maps/place/10491%E5%8F%B0%E5%8C%97%E5%B8%82%E4%B8%AD%E5%B1%B1%E5%8D%80%E6%B0%91%E6%AC%8A%E6%9D%B1%E8%B7%AF%E4%B8%89%E6%AE%B558%E8%99%9F/@25.0620914,121.54012,17z/data=!4m5!3m4!1s0x3442abe342b31eb7:0xa0782a2d6e4a3aee!8m2!3d25.0620",
      "address": "台北市中山區民權東路三段58號",
      "tel": "(02)25057011",
      "lat": 25.0620914,
      "lon": 121.54012
    },
    {
      "name": "圓山分行",
      "link": "https://www.google.com.tw/maps/place/10491%E5%8F%B0%E5%8C%97%E5%B8%82%E4%B8%AD%E5%B1%B1%E5%8D%80%E4%B8%AD%E5%B1%B1%E5%8C%97%E8%B7%AF%E4%BA%8C%E6%AE%B589%E8%99%9F/@25.0588993,121.5209494,17z/data=!4m5!3m4!1s0x3442a942f1d72f27:0xee0faa77ec93af36!8m2!3d25.05",
      "address": "台北市中山區中山北路二段89之4號",
      "tel": "(02)25113245",
      "lat": 25.0588993,
      "lon": 121.5209494
    },
    {
      "name": "長春分行",
      "link": "https://www.google.com.tw/maps/place/10491%E5%8F%B0%E5%8C%97%E5%B8%82%E4%B8%AD%E5%B1%B1%E5%8D%80%E9%95%B7%E6%98%A5%E8%B7%AF201%E8%99%9F/@25.0549699,121.5360763,17z/data=!4m5!3m4!1s0x3442abe0150b34f7:0x7747503d132cb17e!8m2!3d25.0549699!4d121.538265",
      "address": "台北市中山區長春路201號",
      "tel": "(02)25035015",
      "lat": 25.0549699,
      "lon": 121.5360763
    },
    {
      "name": "長安分行",
      "link": "https://www.google.com.tw/maps/place/10491%E5%8F%B0%E5%8C%97%E5%B8%82%E4%B8%AD%E5%B1%B1%E5%8D%80%E9%95%B7%E5%AE%89%E6%9D%B1%E8%B7%AF%E4%B8%80%E6%AE%B59%E8%99%9F/@25.0498061,121.5202436,17z/data=!4m5!3m4!1s0x3442a96efea3d5ad:0x444217a814cfd942!8m2!3d25.049",
      "address": "台北市中山區長安東路一段9號",
      "tel": "(02)25637181",
      "lat": 25.0498061,
      "lon": 121.5202436
    },
    {
      "name": "民生分行",
      "link": "https://www.google.com.tw/maps/place/10491%E5%8F%B0%E5%8C%97%E5%B8%82%E4%B8%AD%E5%B1%B1%E5%8D%80%E6%B0%91%E7%94%9F%E6%9D%B1%E8%B7%AF%E4%B8%89%E6%AE%B577%E8%99%9F/@25.0579924,121.5416001,17z/data=!4m5!3m4!1s0x3442abe41ea1670f:0x546594d85be2f295!8m2!3d25.05",
      "address": "台北市中山區民生東路三段77號",
      "tel": "(02)25162338",
      "lat": 25.0579924,
      "lon": 121.5416001
    },
    {
      "name": "松江分行",
      "link": "https://www.google.com.tw/maps/place/10491%E5%8F%B0%E5%8C%97%E5%B8%82%E4%B8%AD%E5%B1%B1%E5%8D%80%E6%9D%BE%E6%B1%9F%E8%B7%AF152%E8%99%9F/@25.054349,121.530631,17z/data=!4m5!3m4!1s0x3442a960977549f7:0xb35f4c241114b527!8m2!3d25.054349!4d121.5328197",
      "address": "台北市中山區松江路152號",
      "tel": "(02)25224567",
      "lat": 25.054349,
      "lon": 121.530631
    },
    {
      "name": "自強分行",
      "link": "https://www.google.com.tw/maps/place/10491%E5%8F%B0%E5%8C%97%E5%B8%82%E4%B8%AD%E5%B1%B1%E5%8D%80%E5%8D%97%E4%BA%AC%E6%9D%B1%E8%B7%AF%E4%BA%8C%E6%AE%B585%E8%99%9F/@25.0522382,121.529528,17z/data=!3m1!4b1!4m5!3m4!1s0x3442a9612ebf8f09:0xebc692f50f473d33!8m2!",
      "address": "台北市中山區南京東路二段85號",
      "tel": "(02)21003100",
      "lat": 25.0522382,
      "lon": 121.529528
    },
    {
      "name": "中山分行",
      "link": "https://www.google.com.tw/maps/place/10491%E5%8F%B0%E5%8C%97%E5%B8%82%E4%B8%AD%E5%B1%B1%E5%8D%80%E5%8D%97%E4%BA%AC%E6%9D%B1%E8%B7%AF%E4%BA%8C%E6%AE%B52%E8%99%9F/@25.0518481,121.525916,17z/data=!3m1!4b1!4m5!3m4!1s0x3442a96666b29a4f:0xe21f6e5cc85c4d57!8m2!3",
      "address": "台北市中山區南京東路二段2號",
      "tel": "(02)25214065",
      "lat": 25.0518481,
      "lon": 121.525916
    },
    {
      "name": "松山分行",
      "link": "https://www.google.com.tw/maps/place/105%E5%8F%B0%E5%8C%97%E5%B8%82%E6%9D%BE%E5%B1%B1%E5%8D%80%E5%85%AB%E5%BE%B7%E8%B7%AF%E5%9B%9B%E6%AE%B5622%E8%99%9F/@25.0498506,121.5717144,17z/data=!4m5!3m4!1s0x3442ab999ce35811:0xa6e650381a70a5fc!8m2!3d25.0498506!4d12",
      "address": "台北市松山區八德路四段622號",
      "tel": "(02)27656261",
      "lat": 25.0498506,
      "lon": 121.5717144
    },
    {
      "name": "台北分行",
      "link": "https://www.google.com.tw/maps/place/105%E5%8F%B0%E5%8C%97%E5%B8%82%E6%9D%BE%E5%B1%B1%E5%8D%80%E5%BE%A9%E8%88%88%E5%8C%97%E8%B7%AF55%E8%99%9F/@25.0504558,121.5420351,17z/data=!3m1!4b1!4m5!3m4!1s0x3442abddb7f34859:0x5d746ae2ca0fae67!8m2!3d25.0504558!4d121.",
      "address": "台北市松山區復興北路55號",
      "tel": "(02)27724277",
      "lat": 25.0504558,
      "lon": 121.5420351
    },
    {
      "name": "營業部",
      "link": "https://www.google.com.tw/maps/place/105%E5%8F%B0%E5%8C%97%E5%B8%82%E6%9D%BE%E5%B1%B1%E5%8D%80%E9%95%B7%E5%AE%89%E6%9D%B1%E8%B7%AF%E4%BA%8C%E6%AE%B5225%E8%99%9F/@25.048672,121.5433878,17z/data=!3m1!4b1!4m5!3m4!1s0x3442abdc5f5c808f:0x511ac8ee6c7ca90f!8m2!3",
      "address": "台北市松山區長安東路二段225號",
      "tel": "(02)21738888",
      "lat": 25.048672,
      "lon": 121.5433878
    },
    {
      "name": "松興分行",
      "link": "https://www.google.com.tw/maps/place/105%E5%8F%B0%E5%8C%97%E5%B8%82%E6%9D%BE%E5%B1%B1%E5%8D%80%E5%8D%97%E4%BA%AC%E6%9D%B1%E8%B7%AF%E4%BA%94%E6%AE%B5202%E8%99%9F/@25.0512257,121.5626056,17z/data=!3m1!4b1!4m5!3m4!1s0x3442ab943cbbbc75:0x73498e8fbb6778cb!8m2!",
      "address": "台北市松山區南京東路五段202之1號",
      "tel": "(02)27643131",
      "lat": 25.0512257,
      "lon": 121.5626056
    },
    {
      "name": "北寧分行",
      "link": "https://www.google.com.tw/maps/place/105%E5%8F%B0%E5%8C%97%E5%B8%82%E6%9D%BE%E5%B1%B1%E5%8D%80%E5%85%AB%E5%BE%B7%E8%B7%AF%E4%B8%89%E6%AE%B597%E8%99%9F/@25.0483417,121.5512516,17z/data=!4m5!3m4!1s0x3442abc224e0ac37:0xa1d720d28b9f46f7!8m2!3d25.0483417!4d121",
      "address": "台北市松山區八德路三段97號",
      "tel": "(02)25798811",
      "lat": 25.0483417,
      "lon": 121.5512516
    },
    {
      "name": "東門分行",
      "link": "https://www.google.com.tw/maps/place/%E5%90%88%E4%BD%9C%E9%87%91%E5%BA%AB%E9%8A%80%E8%A1%8C+%E6%9D%B1%E9%96%80%E5%88%86%E8%A1%8C/@25.0334379,121.5285682,17z/data=!4m5!3m4!1s0x3442a9821bac89ed:0xdd1f0691a53c9d45!8m2!3d25.0334379!4d121.5307569",
      "address": "台北市大安區信義路二段208號",
      "tel": "(02)23933123",
      "lat": 25.0334379,
      "lon": 121.5285682
    },
    {
      "name": "忠孝分行",
      "link": "https://www.google.com.tw/maps/place/106%E5%8F%B0%E5%8C%97%E5%B8%82%E5%A4%A7%E5%AE%89%E5%8D%80%E5%BF%A0%E5%AD%9D%E6%9D%B1%E8%B7%AF%E5%9B%9B%E6%AE%B5285%E8%99%9F/@25.0416769,121.5518645,17z/data=!3m1!4b1!4m5!3m4!1s0x3442abc678aeb4dd:0xbbed2f24311cda1a!8m2!",
      "address": "台北市大安區忠孝東路四段285號",
      "tel": "(02)27718811",
      "lat": 25.0416769,
      "lon": 121.5518645
    },
    {
      "name": "大安分行",
      "link": "https://www.google.com.tw/maps/place/106%E5%8F%B0%E5%8C%97%E5%B8%82%E5%A4%A7%E5%AE%89%E5%8D%80%E6%95%A6%E5%8C%96%E5%8D%97%E8%B7%AF%E4%BA%8C%E6%AE%B581%E5%B7%B71%E8%99%9F/@25.0300031,121.5471541,17z/data=!4m5!3m4!1s0x3442abcd4ce16ebd:0x20917702c422227!8m2!",
      "address": "台北市大安區敦化南路二段81巷1號",
      "tel": "(02)27553482",
      "lat": 25.0300031,
      "lon": 121.5471541
    },
    {
      "name": "東台北分行",
      "link": "https://www.google.com.tw/maps/place/106%E5%8F%B0%E5%8C%97%E5%B8%82%E5%A4%A7%E5%AE%89%E5%8D%80%E5%BF%A0%E5%AD%9D%E6%9D%B1%E8%B7%AF%E5%9B%9B%E6%AE%B5325%E8%99%9F/@25.041611,121.5542348,17z/data=!4m5!3m4!1s0x3442abc6f8e6846b:0x604c0a669ad649b1!8m2!3d25.0416",
      "address": "台北市大安區忠孝東路四段325號",
      "tel": "(02)27721234",
      "lat": 25.041611,
      "lon": 121.5542348
    },
    {
      "name": "建國分行",
      "link": "https://www.google.com.tw/maps/place/106%E5%8F%B0%E5%8C%97%E5%B8%82%E5%A4%A7%E5%AE%89%E5%8D%80%E4%BF%A1%E7%BE%A9%E8%B7%AF%E4%B8%89%E6%AE%B577%E8%99%9F/@25.0337956,121.5351898,17z/data=!4m5!3m4!1s0x3442abd55c1bd089:0xff45cb3478d15f87!8m2!3d25.0337956!4d121",
      "address": "台北市大安區信義路三段77號",
      "tel": "(02)27027851",
      "lat": 25.0337956,
      "lon": 121.5351898
    },
    {
      "name": "信義分行",
      "link": "https://www.google.com.tw/maps/place/106%E5%8F%B0%E5%8C%97%E5%B8%82%E5%A4%A7%E5%AE%89%E5%8D%80%E4%BF%A1%E7%BE%A9%E8%B7%AF%E5%9B%9B%E6%AE%B5172%E8%99%9F/@25.0330423,121.5487413,17z/data=!3m1!4b1!4m5!3m4!1s0x3442abcdb02d323f:0x179434cb40fddfcd!8m2!3d25.0330",
      "address": "台北市大安區信義路四段172號",
      "tel": "(02)27067188",
      "lat": 25.0330423,
      "lon": 121.5487413
    },
    {
      "name": "仁愛分行",
      "link": "https://www.google.com.tw/maps/place/106%E5%8F%B0%E5%8C%97%E5%B8%82%E5%A4%A7%E5%AE%89%E5%8D%80%E4%BB%81%E6%84%9B%E8%B7%AF%E5%9B%9B%E6%AE%B5325-3%E8%99%9F/@25.0381467,121.5511549,17z/data=!4m5!3m4!1s0x3442abcf384b9a51:0x6197d46b85f883bb!8m2!3d25.0381467!4d",
      "address": "台北市大安區仁愛路四段325號",
      "tel": "(02)27763071",
      "lat": 25.0381467,
      "lon": 121.5511549
    },
    {
      "name": "古亭分行",
      "link": "https://www.google.com.tw/maps/place/106%E5%8F%B0%E5%8C%97%E5%B8%82%E5%A4%A7%E5%AE%89%E5%8D%80%E5%92%8C%E5%B9%B3%E6%9D%B1%E8%B7%AF%E4%B8%80%E6%AE%B565%E8%99%9F/@25.0271591,121.5224391,17z/data=!3m1!4b1!4m5!3m4!1s0x3442a99adb3b93bf:0x7249eca6752802a3!8m2!3",
      "address": "台北市大安區和平東路一段65號",
      "tel": "(02)23949205",
      "lat": 25.0271591,
      "lon": 121.5224391
    },
    {
      "name": "復興分行",
      "link": "https://www.google.com.tw/maps/place/106%E5%8F%B0%E5%8C%97%E5%B8%82%E5%A4%A7%E5%AE%89%E5%8D%80%E5%BE%A9%E8%88%88%E5%8D%97%E8%B7%AF%E4%B8%80%E6%AE%B5237%E8%99%9F/@25.03743,121.5418093,17z/data=!3m1!4b1!4m5!3m4!1s0x3442abd1422f7269:0x9f940bed9a0cf252!8m2!3d",
      "address": "台北市大安區復興南路一段237號",
      "tel": "(02)27541111",
      "lat": 25.03743,
      "lon": 121.5418093
    },
    {
      "name": "新生分行",
      "link": "https://www.google.com.tw/maps/place/106%E5%8F%B0%E5%8C%97%E5%B8%82%E5%A4%A7%E5%AE%89%E5%8D%80%E6%96%B0%E7%94%9F%E5%8D%97%E8%B7%AF%E4%B8%80%E6%AE%B593%E8%99%9F/@25.0414553,121.5309213,17z/data=!4m5!3m4!1s0x3442a97c59478d7b:0xa4fe0b6612447434!8m2!3d25.0414",
      "address": "台北市大安區新生南路一段93號",
      "tel": "(02)27771888",
      "lat": 25.0414553,
      "lon": 121.5309213
    },
    {
      "name": "國際金融業務分行",
      "link": "https://www.google.com.tw/maps/place/105%E5%8F%B0%E5%8C%97%E5%B8%82%E6%9D%BE%E5%B1%B1%E5%8D%80%E9%95%B7%E5%AE%89%E6%9D%B1%E8%B7%AF%E4%BA%8C%E6%AE%B5225%E8%99%9F/@25.048672,121.5433878,17z/data=!3m1!4b1!4m5!3m4!1s0x3442abdc5f5c808f:0x511ac8ee6c7ca90f!8m2!3",
      "address": "台北市松山區長安東路二段225號5樓",
      "tel": "(02)21738888",
      "lat": 25.048672,
      "lon": 121.5433878
    },
    {
      "name": "復旦分行",
      "link": "https://www.google.com.tw/maps/place/%E5%90%88%E4%BD%9C%E9%87%91%E5%BA%AB%E9%8A%80%E8%A1%8C+%E5%BE%A9%E6%97%A6%E5%88%86%E8%A1%8C/@25.0445569,121.5477213,17z/data=!4m5!3m4!1s0x3442abc4959a227f:0x91636abc0e63241d!8m2!3d25.0445569!4d121.54991",
      "address": "台北市大安區市民大道四段100號",
      "tel": "(02)27215551",
      "lat": 25.0445569,
      "lon": 121.5477213
    },
    {
      "name": "敦南分行",
      "link": "https://www.google.com.tw/maps/place/106%E5%8F%B0%E5%8C%97%E5%B8%82%E5%A4%A7%E5%AE%89%E5%8D%80%E6%95%A6%E5%8C%96%E5%8D%97%E8%B7%AF%E4%B8%80%E6%AE%B5362%E8%99%9F/@25.0340977,121.5461882,17z/data=!3m1!4b1!4m5!3m4!1s0x3442abd274c4abb5:0x4174d8f9d871b181!8m2!",
      "address": "台北市大安區敦化南路一段362號",
      "tel": "(02)27011117",
      "lat": 25.0340977,
      "lon": 121.5461882
    },
    {
      "name": "光復南路分行",
      "link": "https://www.google.com.tw/maps/place/%E5%90%88%E4%BD%9C%E9%87%91%E5%BA%AB%E9%8A%80%E8%A1%8C-%E5%85%89%E5%BE%A9%E5%8D%97%E8%B7%AF%E5%88%86%E8%A1%8C/@25.0432819,121.5553313,17z/data=!3m1!4b1!4m5!3m4!1s0x3442abc7213a0f63:0x117fecfa0b3d9a98!8m2!3d25.0432819!4",
      "address": "台北市大安區光復南路102號",
      "tel": "(02)27518770",
      "lat": 25.0432819,
      "lon": 121.5553313
    },
    {
      "name": "信維分行",
      "link": "https://www.google.com.tw/maps/place/106%E5%8F%B0%E5%8C%97%E5%B8%82%E5%A4%A7%E5%AE%89%E5%8D%80%E5%BE%A9%E8%88%88%E5%8D%97%E8%B7%AF%E4%B8%80%E6%AE%B5303%E8%99%9F/@25.0345671,121.5419144,17z/data=!3m1!4b1!4m5!3m4!1s0x3442abd39421b7bb:0x23c6809c8f271e87!8m2!",
      "address": "台北市大安區復興南路一段303號",
      "tel": "(02)27053828",
      "lat": 25.0345671,
      "lon": 121.5419144
    },
    {
      "name": "西門分行",
      "link": "https://www.google.com.tw/maps/place/108%E5%8F%B0%E5%8C%97%E5%B8%82%E8%90%AC%E8%8F%AF%E5%8D%80%E6%98%86%E6%98%8E%E8%A1%9777%E8%99%9F/@25.0431654,121.5028648,17z/data=!3m1!4b1!4m5!3m4!1s0x3442a908f9a9b963:0x2a17c9b7c0a9ef21!8m2!3d25.0431654!4d121.5050535",
      "address": "台北市萬華區昆明街77號",
      "tel": "(02)23814949",
      "lat": 25.0431654,
      "lon": 121.5028648
    },
    {
      "name": "永吉分行",
      "link": "https://www.google.com.tw/maps/place/110%E5%8F%B0%E5%8C%97%E5%B8%82%E4%BF%A1%E7%BE%A9%E5%8D%80%E6%9D%BE%E5%B1%B1%E8%B7%AF279%E8%99%9F/@25.0431644,121.5757953,17z/data=!3m1!4b1!4m5!3m4!1s0x3442aba1ec762291:0xd314cb3510317ec!8m2!3d25.0431644!4d121.577984",
      "address": "台北市信義區松山路279號",
      "tel": "(02)27675226",
      "lat": 25.0431644,
      "lon": 121.5757953
    },
    {
      "name": "三興分行",
      "link": "https://www.google.com.tw/maps/place/110%E5%8F%B0%E5%8C%97%E5%B8%82%E4%BF%A1%E7%BE%A9%E5%8D%80%E5%9F%BA%E9%9A%86%E8%B7%AF%E4%BA%8C%E6%AE%B577%E8%99%9F/@25.0303314,121.5559234,17z/data=!3m1!4b1!4m5!3m4!1s0x3442abcaf43e941b:0x982bbe7ab7a68f93!8m2!3d25.03033",
      "address": "台北市信義區基隆路二段77號",
      "tel": "(02)27388181",
      "lat": 25.0303314,
      "lon": 121.5559234
    },
    {
      "name": "世貿分行",
      "link": "https://www.google.com.tw/maps/search/%E5%8F%B0%E5%8C%97%E5%B8%82%E4%BF%A1%E7%BE%A9%E5%8D%80%E5%9F%BA%E9%9A%86%E8%B7%AF%E4%B8%80%E6%AE%B5333%E8%99%9F2%E6%A8%93%E5%90%88%E4%BD%9C%E9%87%91%E5%BA%AB%E9%8A%80%E8%A1%8C++%E4%B8%96%E8%B2%BF%E5%88%86%E8%A1%8C/@25",
      "address": "台北市信義區基隆路一段333號2樓",
      "tel": "(02)27291333",
      "lat": 25.0342392,
      "lon": 121.5588252
    },
    {
      "name": "士林分行",
      "link": "https://www.google.com.tw/maps/place/111%E5%8F%B0%E5%8C%97%E5%B8%82%E5%A3%AB%E6%9E%97%E5%8D%80%E4%B8%AD%E6%AD%A3%E8%B7%AF469%E8%99%9F/@25.0924222,121.5167846,17z/data=!3m1!4b1!4m5!3m4!1s0x3442aeb99bced9e5:0x6f64962a5038d2c6!8m2!3d25.0924222!4d121.5189733",
      "address": "台北市士林區中正路469號",
      "tel": "(02)28805161",
      "lat": 25.0924222,
      "lon": 121.5167846
    },
    {
      "name": "北士林分行",
      "link": "https://www.google.com.tw/maps/place/111%E5%8F%B0%E5%8C%97%E5%B8%82%E5%A3%AB%E6%9E%97%E5%8D%80%E4%B8%AD%E5%B1%B1%E5%8C%97%E8%B7%AF%E4%BA%94%E6%AE%B5837%E8%99%9F/@25.1019667,121.52335,17z/data=!3m1!4b1!4m5!3m4!1s0x3442ae99d57d8de1:0x9887cdfcbdb6ef4c!8m2!3d",
      "address": "台北市士林區中山北路五段837號",
      "tel": "(02)88665959",
      "lat": 25.1019667,
      "lon": 121.52335
    },
    {
      "name": "石牌分行",
      "link": "https://www.google.com.tw/maps/place/%E5%90%88%E4%BD%9C%E9%87%91%E5%BA%AB%E9%8A%80%E8%A1%8C+%E7%9F%B3%E7%89%8C%E5%88%86%E8%A1%8C/@25.119137,121.51926,17z/data=!4m5!3m4!1s0x3442ae8bd2c11b99:0x129396da514d5fe1!8m2!3d25.1195539!4d121.5195959",
      "address": "台北市北投區石牌路二段201號地下一樓",
      "tel": "(02)28747611",
      "lat": 25.119137,
      "lon": 121.51926
    },
    {
      "name": "內湖分行",
      "link": "https://www.google.com.tw/maps/place/114%E5%8F%B0%E5%8C%97%E5%B8%82%E5%85%A7%E6%B9%96%E5%8D%80%E7%91%9E%E5%85%89%E8%B7%AF502%E8%99%9F/@25.0792844,121.5658877,17z/data=!3m1!4b1!4m5!3m4!1s0x3442ac6e2ec79487:0x7ff9210bca9c385e!8m2!3d25.0792844!4d121.5680764",
      "address": "台北市內湖區瑞光路502號",
      "tel": "(02)26590001",
      "lat": 25.0792844,
      "lon": 121.5658877
    },
    {
      "name": "新湖分行",
      "link": "https://www.google.com.tw/maps/place/114%E5%8F%B0%E5%8C%97%E5%B8%82%E5%85%A7%E6%B9%96%E5%8D%80%E6%96%B0%E6%B9%96%E4%BA%8C%E8%B7%AF255%E8%99%9F/@25.0637293,121.5795222,17z/data=!3m1!4b1!4m5!3m4!1s0x3442ab8011352ceb:0x6fdd94666056df2e!8m2!3d25.0637293!4d121",
      "address": "台北市內湖區新湖二路255、257號",
      "tel": "(02)27908118",
      "lat": 25.0637293,
      "lon": 121.5795222
    },
    {
      "name": "西湖分行",
      "link": "https://www.google.com.tw/maps/place/114%E5%8F%B0%E5%8C%97%E5%B8%82%E5%85%A7%E6%B9%96%E5%8D%80%E7%91%9E%E5%85%89%E8%B7%AF206%E8%99%9F/@25.0751833,121.574448,17z/data=!3m1!4b1!4m5!3m4!1s0x3442ac7b6753751f:0x287126fb4f6e609c!8m2!3d25.0751833!4d121.5766367",
      "address": "台北市內湖區瑞光路206號",
      "tel": "(02)27971989",
      "lat": 25.0751833,
      "lon": 121.574448
    },
    {
      "name": "大湖分行",
      "link": "https://www.google.com.tw/maps/place/114%E5%8F%B0%E5%8C%97%E5%B8%82%E5%85%A7%E6%B9%96%E5%8D%80%E6%B0%91%E6%AC%8A%E6%9D%B1%E8%B7%AF%E5%85%AD%E6%AE%B5314%E8%99%9F/@25.0729406,121.6041817,17z/data=!3m1!4b1!4m5!3m4!1s0x3442acbd8ff58fb3:0x3add5c515bae43b2!8m2!",
      "address": "台北市內湖區民權東路六段314號",
      "tel": "(02)26328600",
      "lat": 25.0729406,
      "lon": 121.6041817
    },
    {
      "name": "國醫中心分行",
      "link": "https://www.google.com.tw/maps/place/%E5%90%88%E4%BD%9C%E9%87%91%E5%BA%AB%E9%8A%80%E8%A1%8C/@25.0724027,121.5905857,17z/data=!3m1!4b1!4m5!3m4!1s0x3442ac844c540ce9:0x32a6706e16a61a37!8m2!3d25.0724027!4d121.5927744",
      "address": "台北市內湖區成功路二段325號",
      "tel": "(02)87925745",
      "lat": 25.0724027,
      "lon": 121.5905857
    },
    {
      "name": "玉成分行",
      "link": "https://www.google.com.tw/maps/place/115%E5%8F%B0%E5%8C%97%E5%B8%82%E5%8D%97%E6%B8%AF%E5%8D%80%E5%BF%A0%E5%AD%9D%E6%9D%B1%E8%B7%AF%E4%BA%94%E6%AE%B5815%E8%99%9F/@25.045085,121.5800933,17z/data=!4m5!3m4!1s0x3442ab9fdbe6da27:0x84b9b70c0eaca488!8m2!3d25.0450",
      "address": "台北市南港區忠孝東路五段815號",
      "tel": "(02)27856060",
      "lat": 25.045085,
      "lon": 121.5800933
    },
    {
      "name": "南港分行",
      "link": "https://www.google.com.tw/maps/place/%E5%90%88%E4%BD%9C%E9%87%91%E5%BA%AB%E9%8A%80%E8%A1%8C+%E5%8D%97%E6%B8%AF%E5%88%86%E8%A1%8C/@25.0587767,121.610804,17z/data=!4m5!3m4!1s0x3442aca77512de2d:0x320ed62734cd1df8!8m2!3d25.0587767!4d121.6129927",
      "address": "台北市南港區三重路19之16號",
      "tel": "(02)26550777",
      "lat": 25.0587767,
      "lon": 121.610804
    },
    {
      "name": "港湖分行",
      "link": "https://www.google.com.tw/maps/place/115%E5%8F%B0%E5%8C%97%E5%B8%82%E5%8D%97%E6%B8%AF%E5%8D%80%E9%87%8D%E9%99%BD%E8%B7%AF223%E8%99%9F/@25.0576883,121.5995563,17z/data=!3m1!4b1!4m5!3m4!1s0x3442ab61a5d2d2c9:0x965bae7359b07e59!8m2!3d25.0576883!4d121.601745",
      "address": "台北市南港區重陽路223號",
      "tel": "(02)27862268",
      "lat": 25.0576883,
      "lon": 121.5995563
    },
    {
      "name": "景美分行",
      "link": "https://www.google.com.tw/maps/place/116%E5%8F%B0%E5%8C%97%E5%B8%82%E6%96%87%E5%B1%B1%E5%8D%80%E7%BE%85%E6%96%AF%E7%A6%8F%E8%B7%AF%E5%85%AD%E6%AE%B5457%E8%99%9F/@24.9900588,121.5377158,17z/data=!3m1!4b1!4m5!3m4!1s0x3442aa00875accc7:0x7524c62a51185bc6!8m2!",
      "address": "台北市文山區羅斯褔路六段457號",
      "tel": "(02)29318111",
      "lat": 24.9900588,
      "lon": 121.5377158
    }
  ],
  "新北市": [
    {
      "name": "板橋分行",
      "link": "https://www.google.com.tw/maps/place/220%E6%96%B0%E5%8C%97%E5%B8%82%E6%9D%BF%E6%A9%8B%E5%8D%80%E4%B8%AD%E6%AD%A3%E8%B7%AF330-1%E8%99%9F/@25.0220193,121.4523494,17z/data=!3m1!4b1!4m5!3m4!1s0x3442a80fa3fbe573:0x5b611504b50b2a76!8m2!3d25.0220193!4d121.454538",
      "address": "新北市板橋區中正路330號",
      "tel": "(02)29660971",
      "lat": 25.0220193,
      "lon": 121.4523494
    },
    {
      "name": "海山分行",
      "link": "https://www.google.com.tw/maps/place/220%E6%96%B0%E5%8C%97%E5%B8%82%E6%9D%BF%E6%A9%8B%E5%8D%80%E6%96%87%E5%8C%96%E8%B7%AF%E4%BA%8C%E6%AE%B5443%E8%99%9F/@25.0333557,121.4728403,17z/data=!3m1!4b1!4m5!3m4!1s0x3442a8446fbd3193:0x21101adb2c8a8d8!8m2!3d25.03335",
      "address": "新北市板橋區文化路二段443號",
      "tel": "(02)22551333",
      "lat": 25.0333557,
      "lon": 121.4728403
    },
    {
      "name": "埔墘分行",
      "link": "https://www.google.com.tw/maps/place/220%E6%96%B0%E5%8C%97%E5%B8%82%E6%9D%BF%E6%A9%8B%E5%8D%80%E4%B8%89%E6%B0%91%E8%B7%AF%E4%BA%8C%E6%AE%B533%E8%99%9F2/@25.0176792,121.4772413,17z/data=!3m1!4b1!4m5!3m4!1s0x3442a83a7a69a42d:0xef924d184880b851!8m2!3d25.0176",
      "address": "新北市板橋區三民路二段33號2樓",
      "tel": "(02)29631122",
      "lat": 25.0176792,
      "lon": 121.4772413
    },
    {
      "name": "板新分行",
      "link": "https://www.google.com.tw/maps/place/220%E6%96%B0%E5%8C%97%E5%B8%82%E6%9D%BF%E6%A9%8B%E5%8D%80%E5%8D%97%E9%9B%85%E5%8D%97%E8%B7%AF%E4%BA%8C%E6%AE%B543%E8%99%9F/@24.9947538,121.4492232,17z/data=!3m1!4b1!4m5!3m4!1s0x346802b155966647:0x5db3ac7e9dd52de2!8m2!3",
      "address": "新北市板橋區南雅南路二段43號",
      "tel": "(02)89663889",
      "lat": 24.9947538,
      "lon": 121.4492232
    },
    {
      "name": "汐止分行",
      "link": "https://www.google.com.tw/maps/place/221%E6%96%B0%E5%8C%97%E5%B8%82%E6%B1%90%E6%AD%A2%E5%8D%80%E5%BF%A0%E5%AD%9D%E6%9D%B1%E8%B7%AF225%E8%99%9F/@25.0669409,121.6600573,17z/data=!3m1!4b1!4m5!3m4!1s0x345d5312ab420513:0xd374a8dcf3da912d!8m2!3d25.0669361!4d121",
      "address": "新北市汐止區忠孝東路225號",
      "tel": "(02)26413211",
      "lat": 25.0669409,
      "lon": 121.6600573
    },
    {
      "name": "南汐止分行",
      "link": "https://www.google.com.tw/maps/place/221%E6%96%B0%E5%8C%97%E5%B8%82%E6%B1%90%E6%AD%A2%E5%8D%80%E6%96%B0%E5%8F%B0%E4%BA%94%E8%B7%AF%E4%B8%80%E6%AE%B594%E8%99%9F/@25.0609038,121.6459003,17z/data=!3m1!4b1!4m5!3m4!1s0x345d534321cce16f:0x374ae200201cb140!8m2!3",
      "address": "新北市汐止區新台五路一段94之1號",
      "tel": "(02)26968888",
      "lat": 25.0609038,
      "lon": 121.6459003
    },
    {
      "name": "新店分行",
      "link": "https://www.google.com.tw/maps/place/231%E6%96%B0%E5%8C%97%E5%B8%82%E6%96%B0%E5%BA%97%E5%8D%80%E5%85%89%E6%98%8E%E8%A1%9732%E8%99%9F/@24.9589373,121.5361933,17z/data=!4m5!3m4!1s0x3468018812a4e305:0xbcf1b5b2fd2cd19f!8m2!3d24.9589325!4d121.538382",
      "address": "新北市新店區光明街32號",
      "tel": "(02)29111111",
      "lat": 24.9589373,
      "lon": 121.5361933
    },
    {
      "name": "北新分行",
      "link": "https://www.google.com.tw/maps/place/231%E6%96%B0%E5%8C%97%E5%B8%82%E6%96%B0%E5%BA%97%E5%8D%80%E5%8C%97%E6%96%B0%E8%B7%AF%E4%B8%80%E6%AE%B56%E8%99%9F/@24.9653677,121.5386923,17z/data=!4m5!3m4!1s0x3468018ba6cf8017:0x9c3de91bf8abf4de!8m2!3d24.9653629!4d121.",
      "address": "新北市新店區北新路一段6號",
      "tel": "(02)29172911",
      "lat": 24.9653677,
      "lon": 121.5386923
    },
    {
      "name": "大坪林分行",
      "link": "https://www.google.com.tw/maps/place/231%E6%96%B0%E5%8C%97%E5%B8%82%E6%96%B0%E5%BA%97%E5%8D%80%E6%B0%91%E6%AC%8A%E8%B7%AF67%E8%99%9F/@24.9827945,121.5367807,17z/data=!3m1!4b1!4m5!3m4!1s0x346801f8ef01be3d:0xb4c8028b57b6664a!8m2!3d24.9827897!4d121.5389694",
      "address": "新北市新店區民權路67號",
      "tel": "(02)29138611",
      "lat": 24.9827945,
      "lon": 121.5367807
    },
    {
      "name": "寶橋分行",
      "link": "https://www.google.com.tw/maps/place/231%E6%96%B0%E5%8C%97%E5%B8%82%E6%96%B0%E5%BA%97%E5%8D%80%E5%AF%B6%E6%A9%8B%E8%B7%AF235%E5%B7%B72%E8%99%9F/@24.9798559,121.5501138,17z/data=!3m1!4b1!4m5!3m4!1s0x346801e4451eb23b:0xb12540d22e233eba!8m2!3d24.9798511!4d12",
      "address": "新北市新店區寶橋路235巷2號",
      "tel": "(02)29185506",
      "lat": 24.9798559,
      "lon": 121.5501138
    },
    {
      "name": "永和分行",
      "link": "https://www.google.com.tw/maps/place/234%E6%96%B0%E5%8C%97%E5%B8%82%E6%B0%B8%E5%92%8C%E5%8D%80%E4%B8%AD%E6%AD%A3%E8%B7%AF575%E8%99%9F/@25.0087603,121.5144857,17z/data=!3m1!4b1!4m5!3m4!1s0x3442a9e9ac04856f:0xc550d8d0363bede6!8m2!3d25.0087555!4d121.5166744",
      "address": "新北市永和區中正路575號",
      "tel": "(02)29236611",
      "lat": 25.0087603,
      "lon": 121.5144857
    },
    {
      "name": "中和分行",
      "link": "https://www.google.com.tw/maps/place/235%E6%96%B0%E5%8C%97%E5%B8%82%E4%B8%AD%E5%92%8C%E5%8D%80%E6%B3%B0%E5%92%8C%E8%A1%979%E8%99%9F/@25.0003057,121.4974413,17z/data=!3m1!4b1!4m5!3m4!1s0x3442a9d6344b2f47:0xb863c2e5e46cfd80!8m2!3d25.0003009!4d121.49963",
      "address": "新北市中和區泰和街9號",
      "tel": "(02)22499500",
      "lat": 25.0003057,
      "lon": 121.4974413
    },
    {
      "name": "南勢角分行",
      "link": "https://www.google.com.tw/maps/place/235%E6%96%B0%E5%8C%97%E5%B8%82%E4%B8%AD%E5%92%8C%E5%8D%80%E8%88%88%E5%8D%97%E8%B7%AF%E4%B8%80%E6%AE%B520-2%E8%99%9F/@24.9911132,121.5090124,17z/data=!3m1!4b1!4m5!3m4!1s0x3468027380879285:0x5beebddf70c44b90!8m2!3d24.991",
      "address": "新北市中和區興南路一段20號",
      "tel": "(02)29461266",
      "lat": 24.9911132,
      "lon": 121.5090124
    },
    {
      "name": "雙和分行",
      "link": "https://www.google.com.tw/maps/place/%E5%90%88%E4%BD%9C%E9%87%91%E5%BA%AB%E9%8A%80%E8%A1%8C%E9%9B%99%E5%92%8C%E5%88%86%E8%A1%8C/@24.9966348,121.4854892,17z/data=!3m1!4b1!4m5!3m4!1s0x34680286cd4b7635:0xd976da631149a4cc!8m2!3d24.99663!4d121.4876779",
      "address": "新北市中和區建一路196號",
      "tel": "(02)82271627",
      "lat": 24.9966348,
      "lon": 121.4854892
    },
    {
      "name": "立德分行",
      "link": "https://www.google.com.tw/maps/place/235%E6%96%B0%E5%8C%97%E5%B8%82%E4%B8%AD%E5%92%8C%E5%8D%80%E7%AB%8B%E5%BE%B7%E8%A1%97105%E8%99%9F/@25.0084684,121.4835824,17z/data=!3m1!4b1!4m5!3m4!1s0x3442a82c02dc980b:0xb40fcec822db294e!8m2!3d25.0084636!4d121.4857711",
      "address": "新北市中和區立德街105號",
      "tel": "(02)82282121",
      "lat": 25.0084684,
      "lon": 121.4835824
    },
    {
      "name": "北中和分行",
      "link": "https://www.google.com.tw/maps/place/%E5%90%88%E4%BD%9C%E9%87%91%E5%BA%AB%E9%8A%80%E8%A1%8C+%E5%8C%97%E4%B8%AD%E5%92%8C%E5%88%86%E8%A1%8C/@25.0057684,121.4767423,17z/data=!3m1!4b1!4m5!3m4!1s0x3442a827c154487b:0x51044e366d127650!8m2!3d25.0057636!4d121.4789",
      "address": "新北市中和區中山路三段35號",
      "tel": "(02)22263667",
      "lat": 25.0057684,
      "lon": 121.4767423
    },
    {
      "name": "土城分行",
      "link": "https://www.google.com.tw/maps/place/236%E6%96%B0%E5%8C%97%E5%B8%82%E5%9C%9F%E5%9F%8E%E5%8D%80%E4%B8%AD%E5%A4%AE%E8%B7%AF%E4%BA%8C%E6%AE%B596%E8%99%9F/@24.9786336,121.4400314,17z/data=!3m1!4b1!4m5!3m4!1s0x34681d2db0478a59:0x17e02635b8b6216d!8m2!3d24.97862",
      "address": "新北市土城區中央路二段96號",
      "tel": "(02)22651611",
      "lat": 24.9786336,
      "lon": 121.4400314
    },
    {
      "name": "南土城分行",
      "link": "https://www.google.com.tw/maps/place/236%E6%96%B0%E5%8C%97%E5%B8%82%E5%9C%9F%E5%9F%8E%E5%8D%80%E4%B8%AD%E5%A4%AE%E8%B7%AF%E5%9B%9B%E6%AE%B56%E8%99%9F/@24.9633525,121.4236256,17z/data=!3m1!4b1!4m5!3m4!1s0x34681cc32b2b47cd:0x6770bf0dcd4a63f8!8m2!3d24.963347",
      "address": "新北市土城區中央路四段6號",
      "tel": "(02)22686888",
      "lat": 24.9633525,
      "lon": 121.4236256
    },
    {
      "name": "北土城分行",
      "link": "https://www.google.com.tw/maps/place/236%E6%96%B0%E5%8C%97%E5%B8%82%E5%9C%9F%E5%9F%8E%E5%8D%80%E5%AD%B8%E5%BA%9C%E8%B7%AF%E4%B8%80%E6%AE%B5200%E8%99%9F/@24.9859034,121.450605,17z/data=!3m1!4b1!4m5!3m4!1s0x346802c90b514c91:0x5e60eec0094385bb!8m2!3d24.98589",
      "address": "新北市土城區學府路一段200號",
      "tel": "(02)22731688",
      "lat": 24.9859034,
      "lon": 121.450605
    },
    {
      "name": "三峽分行",
      "link": "https://www.google.com.tw/maps/place/237%E6%96%B0%E5%8C%97%E5%B8%82%E4%B8%89%E5%B3%BD%E5%8D%80%E6%96%87%E5%8C%96%E8%B7%AF61%E8%99%9F/@24.936089,121.3700773,17z/data=!3m1!4b1!4m5!3m4!1s0x34681bf3ccc3aa25:0x269adeaca5ad6e3e!8m2!3d24.936089!4d121.372266",
      "address": "新北市三峽區文化路61號",
      "tel": "(02)26747999",
      "lat": 24.936089,
      "lon": 121.3700773
    },
    {
      "name": "北三峽分行",
      "link": "https://www.google.com.tw/maps/place/237%E6%96%B0%E5%8C%97%E5%B8%82%E4%B8%89%E5%B3%BD%E5%8D%80%E6%96%87%E5%8C%96%E8%B7%AF71%E8%99%9F/@24.9361097,121.3698043,17z/data=!3m1!4b1!4m5!3m4!1s0x34681bf3d2ae6dbf:0xa965623bd120da89!8m2!3d24.9361049!4d121.371993",
      "address": "新北市三峽區文化路71號",
      "tel": "(02)26711110",
      "lat": 24.9361097,
      "lon": 121.3698043
    },
    {
      "name": "樹林分行",
      "link": "https://www.google.com.tw/maps/place/238%E6%96%B0%E5%8C%97%E5%B8%82%E6%A8%B9%E6%9E%97%E5%8D%80%E4%B8%AD%E5%B1%B1%E8%B7%AF%E4%B8%80%E6%AE%B5152%E8%99%9F/@24.9898923,121.4201709,17z/data=!3m1!4b1!4m5!3m4!1s0x34681d161b782a45:0xfc221023f3ca1695!8m2!3d24.9898",
      "address": "新北市樹林區中山路一段152號",
      "tel": "(02)86872211",
      "lat": 24.9898923,
      "lon": 121.4201709
    },
    {
      "name": "北樹林分行",
      "link": "https://www.google.com.tw/maps/place/%E5%90%88%E4%BD%9C%E9%87%91%E5%BA%AB%E9%8A%80%E8%A1%8C+%E5%8C%97%E6%A8%B9%E6%9E%97%E5%88%86%E8%A1%8C/@25.0162231,121.4074373,17z/data=!3m1!4b1!4m5!3m4!1s0x34681d7c9a09b245:0xa4782d25c4be0edc!8m2!3d25.0162183!4d121.4096",
      "address": "新北市樹林區中正路793號",
      "tel": "(02)26762789",
      "lat": 25.0162231,
      "lon": 121.4074373
    },
    {
      "name": "鶯歌分行",
      "link": "https://www.google.com.tw/maps/place/239%E6%96%B0%E5%8C%97%E5%B8%82%E9%B6%AF%E6%AD%8C%E5%8D%80%E4%B8%AD%E5%B1%B1%E8%B7%AF175%E8%99%9F/@24.9569098,121.3458783,17z/data=!3m1!4b1!4m5!3m4!1s0x34681eaece0698e5:0x2746a54f09e202e7!8m2!3d24.956905!4d121.348067",
      "address": "新北市鶯歌區中山路175號",
      "tel": "(02)86781188",
      "lat": 24.9569098,
      "lon": 121.3458783
    },
    {
      "name": "三重分行",
      "link": "https://www.google.com.tw/maps/place/241%E6%96%B0%E5%8C%97%E5%B8%82%E4%B8%89%E9%87%8D%E5%8D%80%E6%AD%A3%E7%BE%A9%E5%8D%97%E8%B7%AF17%E8%99%9F/@25.0613198,121.4955293,17z/data=!3m1!4b1!4m5!3m4!1s0x3442a918cffa174f:0xe5a0106460b8f4c0!8m2!3d25.061315!4d121.4",
      "address": "新北市三重區正義南路17號",
      "tel": "(02)29738111",
      "lat": 25.0613198,
      "lon": 121.4955293
    },
    {
      "name": "東三重分行",
      "link": "https://www.google.com.tw/maps/place/%E5%90%88%E4%BD%9C%E9%87%91%E5%BA%AB%E9%8A%80%E8%A1%8C+%E6%9D%B1%E4%B8%89%E9%87%8D%E5%88%86%E8%A1%8C/@25.0673954,121.4986436,17z/data=!4m5!3m4!1s0x3442a923646492db:0xa79a39ce1f03eb6e!8m2!3d25.0673906!4d121.5008323",
      "address": "新北市三重區三和路二段37號",
      "tel": "(02)29728111",
      "lat": 25.0673954,
      "lon": 121.4986436
    },
    {
      "name": "二重分行",
      "link": "https://www.google.com.tw/maps/place/241%E6%96%B0%E5%8C%97%E5%B8%82%E4%B8%89%E9%87%8D%E5%8D%80%E5%85%89%E5%BE%A9%E8%B7%AF%E4%B8%80%E6%AE%B581%E8%99%9F/@25.0501657,121.4702973,17z/data=!3m1!4b1!4m5!3m4!1s0x3442a8f5b6dd6173:0x484031ab4fc82534!8m2!3d25.05016",
      "address": "新北市三重區光復路一段81號",
      "tel": "(02)29993399",
      "lat": 25.0501657,
      "lon": 121.4702973
    },
    {
      "name": "南三重分行",
      "link": "https://www.google.com.tw/maps/place/241%E6%96%B0%E5%8C%97%E5%B8%82%E4%B8%89%E9%87%8D%E5%8D%80%E6%AD%A3%E7%BE%A9%E5%8C%97%E8%B7%AF120%E8%99%9F/@25.0654902,121.49452,17z/data=!3m1!4b1!4m5!3m4!1s0x3442a92188a850a9:0x8aee0f8510699d47!8m2!3d25.0654854!4d121.4",
      "address": "新北市三重區正義北路120號",
      "tel": "(02)29817117",
      "lat": 25.0654902,
      "lon": 121.49452
    },
    {
      "name": "新莊分行",
      "link": "https://www.google.com.tw/maps/place/242%E6%96%B0%E5%8C%97%E5%B8%82%E6%96%B0%E8%8E%8A%E5%8D%80%E4%B8%AD%E5%B9%B3%E8%B7%AF379%E8%99%9F/@25.0528094,121.4423979,17z/data=!3m1!4b1!4m5!3m4!1s0x3442a7d56ea4dc5f:0xb40afa88c4106a05!8m2!3d25.0528046!4d121.4445866",
      "address": "新北市新莊區中平路379號",
      "tel": "(02)29929981",
      "lat": 25.0528094,
      "lon": 121.4423979
    },
    {
      "name": "東新莊分行",
      "link": "https://www.google.com.tw/maps/place/242%E6%96%B0%E5%8C%97%E5%B8%82%E6%96%B0%E8%8E%8A%E5%8D%80%E6%80%9D%E6%BA%90%E8%B7%AF339%E8%99%9F/@25.0500066,121.457394,17z/data=!3m1!4b1!4m5!3m4!1s0x3442a8628bfe432d:0x34f436d0cfc9e089!8m2!3d25.0500018!4d121.4595827",
      "address": "新北市新莊區思源路339號",
      "tel": "(02)29973456",
      "lat": 25.0500066,
      "lon": 121.457394
    },
    {
      "name": "新樹分行",
      "link": "https://www.google.com.tw/maps/place/242%E6%96%B0%E5%8C%97%E5%B8%82%E6%96%B0%E8%8E%8A%E5%8D%80%E6%96%B0%E6%A8%B9%E8%B7%AF224%E8%99%9F/@25.0201012,121.4313145,17z/data=!3m1!4b1!4m5!3m4!1s0x3442a7f0ada0df8f:0x850391a72830aff2!8m2!3d25.0200964!4d121.4335032",
      "address": "新北市新莊區新樹路224號",
      "tel": "(02)22012797",
      "lat": 25.0201012,
      "lon": 121.4313145
    },
    {
      "name": "丹鳳分行",
      "link": "https://www.google.com.tw/maps/place/%E5%90%88%E4%BD%9C%E9%87%91%E5%BA%AB%E9%8A%80%E8%A1%8C+%E4%B8%B9%E9%B3%B3%E5%88%86%E8%A1%8C/@25.0304376,121.4258062,17z/data=!3m1!4b1!4m5!3m4!1s0x3468020093f93c45:0x2cb43c9c5acf160a!8m2!3d25.0304328!4d121.4279949",
      "address": "新北市新莊區中正路657之10、657之14號",
      "tel": "(02)29088979",
      "lat": 25.0304376,
      "lon": 121.4258062
    },
    {
      "name": "新泰分行",
      "link": "https://www.google.com.tw/maps/place/242%E6%96%B0%E5%8C%97%E5%B8%82%E6%96%B0%E8%8E%8A%E5%8D%80%E6%96%B0%E6%B3%B0%E8%B7%AF115%E8%99%9F/@25.0357518,121.4461403,17z/data=!3m1!4b1!4m5!3m4!1s0x3442a875b2847dab:0x61393f037ff66bb0!8m2!3d25.035747!4d121.448329",
      "address": "新北市新莊區新泰路115號",
      "tel": "(02)29986688",
      "lat": 25.0357518,
      "lon": 121.4461403
    },
    {
      "name": "泰山分行",
      "link": "https://www.google.com.tw/maps/place/243%E6%96%B0%E5%8C%97%E5%B8%82%E6%B3%B0%E5%B1%B1%E5%8D%80%E6%98%8E%E5%BF%97%E8%B7%AF%E4%B8%89%E6%AE%B5148%E8%99%9F/@25.0397124,121.4223746,17z/data=!3m1!4b1!4m5!3m4!1s0x3442a7c0440ba1c9:0x58502f4b5f27fd30!8m2!3d25.0397",
      "address": "新北市泰山區明志路三段148號",
      "tel": "(02)29082811",
      "lat": 25.0397124,
      "lon": 121.4223746
    },
    {
      "name": "林口文化分行",
      "link": "https://www.google.com.tw/maps/place/%E5%90%88%E4%BD%9C%E9%87%91%E5%BA%AB%E6%9E%97%E5%8F%A3%E6%96%87%E5%8C%96%E5%88%86%E8%A1%8C/@25.0684043,121.3633976,17z/data=!3m1!4b1!4m5!3m4!1s0x3442a728a7f92c9d:0x637874f5f03e5712!8m2!3d25.0683995!4d121.3655863",
      "address": "新北市林口區文化二路一段62之5號",
      "tel": "(02)2608-6883",
      "lat": 25.0684043,
      "lon": 121.3633976
    },
    {
      "name": "蘆洲分行",
      "link": "https://www.google.com.tw/maps/place/%E5%90%88%E4%BD%9C%E9%87%91%E5%BA%AB%E9%8A%80%E8%A1%8C/@25.0843935,121.4728873,17z/data=!3m1!4b1!4m5!3m4!1s0x3442a8cc028dfdbb:0x1fd57f87c22afdbe!8m2!3d25.0843887!4d121.475076",
      "address": "新北市蘆洲區三民路84號",
      "tel": "(02)82825678",
      "lat": 25.0843935,
      "lon": 121.4728873
    },
    {
      "name": "五股分行",
      "link": "https://www.google.com.tw/maps/place/248%E6%96%B0%E5%8C%97%E5%B8%82%E4%BA%94%E8%82%A1%E5%8D%80%E4%B8%AD%E8%88%88%E8%B7%AF%E4%B8%80%E6%AE%B52%E8%99%9F/@25.0724253,121.4675003,17z/data=!3m1!4b1!4m5!3m4!1s0x3442a8c061b63791:0x95035c37b84cec41!8m2!3d25.072420",
      "address": "新北市五股區中興路一段2號",
      "tel": "(02)89769698",
      "lat": 25.0724253,
      "lon": 121.4675003
    },
    {
      "name": "五股工業區分行",
      "link": "https://www.google.com.tw/maps/place/248%E6%96%B0%E5%8C%97%E5%B8%82%E4%BA%94%E8%82%A1%E5%8D%80%E4%BA%94%E5%B7%A5%E8%B7%AF119%E8%99%9F/@25.0677006,121.4503119,17z/data=!3m1!4b1!4m5!3m4!1s0x3442a89be9f4db85:0xff6d19d15ee5129f!8m2!3d25.0676958!4d121.4525006",
      "address": "新北市五股區五工路119號",
      "tel": "(02)22989898",
      "lat": 25.0677006,
      "lon": 121.4503119
    },
    {
      "name": "淡水分行",
      "link": "https://www.google.com.tw/maps/place/%E5%90%88%E4%BD%9C%E9%87%91%E5%BA%AB%E9%8A%80%E8%A1%8C+%E6%B7%A1%E6%B0%B4%E5%88%86%E8%A1%8C/@25.1865104,121.4417929,17z/data=!4m5!3m4!1s0x3442a55a55555555:0x3114de5e45e2c68!8m2!3d25.1865056!4d121.4439816",
      "address": "新北市淡水區中山北路二段219號",
      "tel": "(02)26211415",
      "lat": 25.1865104,
      "lon": 121.4417929
    }
  ],
  "桃園市": [
    {
      "name": "中壢分行",
      "link": "https://www.google.com.tw/maps/place/320%E6%A1%83%E5%9C%92%E5%B8%82%E4%B8%AD%E5%A3%A2%E5%8D%80%E4%B8%AD%E5%B1%B1%E8%B7%AF180%E8%99%9F/@24.956578,121.2216413,17z/data=!3m1!4b1!4m5!3m4!1s0x34682249e7d566e7:0x87f98b055dd727f6!8m2!3d24.956578!4d121.22383",
      "address": "桃園市中壢區中山路180號",
      "tel": "(03)4225141",
      "lat": 24.956578,
      "lon": 121.2216413
    },
    {
      "name": "中原分行",
      "link": "https://www.google.com.tw/maps/place/320%E6%A1%83%E5%9C%92%E5%B8%82%E4%B8%AD%E5%A3%A2%E5%8D%80%E4%B8%AD%E5%8C%97%E8%B7%AF%E4%BA%8C%E6%AE%B5392%E8%99%9F/@24.9538939,121.2296027,17z/data=!3m1!4b1!4m5!3m4!1s0x346822470d832267:0xd7fe80f6179ffc85!8m2!3d24.9538",
      "address": "桃園市中壢區中北路二段392號",
      "tel": "(03)4688998",
      "lat": 24.9538939,
      "lon": 121.2296027
    },
    {
      "name": "壢新分行",
      "link": "https://www.google.com.tw/maps/place/320%E6%A1%83%E5%9C%92%E5%B8%82%E4%B8%AD%E5%A3%A2%E5%8D%80%E4%B8%AD%E5%B1%B1%E8%B7%AF119%E8%99%9F/@24.9556551,121.2228624,17z/data=!4m5!3m4!1s0x34682249b7cd4899:0x78bfcdba46ef3826!8m2!3d24.9556551!4d121.2250511",
      "address": "桃園市中壢區中山路119號",
      "tel": "(03)4222131",
      "lat": 24.9556551,
      "lon": 121.2228624
    },
    {
      "name": "新明分行",
      "link": "https://www.google.com.tw/maps/place/324%E6%A1%83%E5%9C%92%E5%B8%82%E5%B9%B3%E9%8E%AE%E5%8D%80%E7%92%B0%E5%8D%97%E8%B7%AF1%E8%99%9F/@24.9572233,121.2049212,17z/data=!4m5!3m4!1s0x346823b740f7e84f:0x7797896782150785!8m2!3d24.9572233!4d121.2071099",
      "address": "桃園市平鎮區環南路1號",
      "tel": "(03)4939393",
      "lat": 24.9572233,
      "lon": 121.2049212
    },
    {
      "name": "平鎮分行",
      "link": "https://www.google.com.tw/maps/place/324%E6%A1%83%E5%9C%92%E5%B8%82%E5%B9%B3%E9%8E%AE%E5%8D%80%E7%92%B0%E5%8D%97%E8%B7%AF%E4%BA%8C%E6%AE%B5290%E8%99%9F/@24.940171,121.2127016,17z/data=!3m1!4b1!4m5!3m4!1s0x346823aae5aef409:0xc5a50d39f345489d!8m2!3d24.94017",
      "address": "桃園市平鎮區環南路二段290號",
      "tel": "(03)4689299",
      "lat": 24.940171,
      "lon": 121.2127016
    },
    {
      "name": "龍潭分行",
      "link": "https://www.google.com.tw/maps/place/325%E6%A1%83%E5%9C%92%E5%B8%82%E9%BE%8D%E6%BD%AD%E5%8D%80%E4%B8%AD%E6%AD%A3%E8%B7%AF221%E8%99%9F/@24.8642094,121.2149929,17z/data=!3m1!4b1!4m5!3m4!1s0x34683d1d5b9c5a19:0x15630fa3ca2939e1!8m2!3d24.8642094!4d121.2171816",
      "address": "桃園市龍潭區中正路221號",
      "tel": "(03)4893512",
      "lat": 24.8642094,
      "lon": 121.2149929
    },
    {
      "name": "楊梅分行",
      "link": "https://www.google.com.tw/maps/place/326%E6%A1%83%E5%9C%92%E5%B8%82%E6%A5%8A%E6%A2%85%E5%8D%80%E5%A4%A7%E6%A8%A1%E8%A1%9710%E8%99%9F/@24.9128508,121.14227,17z/data=!3m1!4b1!4m5!3m4!1s0x346824cb3c5e5dd7:0xdfc26f637071effd!8m2!3d24.9128508!4d121.1444587",
      "address": "桃園市楊梅區大模街10之1號",
      "tel": "(03)4754411",
      "lat": 24.9128508,
      "lon": 121.14227
    },
    {
      "name": "桃園分行",
      "link": "https://www.google.com.tw/maps/place/330%E6%A1%83%E5%9C%92%E5%B8%82%E6%A1%83%E5%9C%92%E5%8D%80%E4%B8%AD%E6%AD%A3%E8%B7%AF58%E8%99%9F/@24.9914419,121.3105653,17z/data=!3m1!4b1!4m5!3m4!1s0x34681efc93d5459d:0x31c2aadb827b752b!8m2!3d24.9914419!4d121.312754",
      "address": "桃園市桃園區中正路58號",
      "tel": "(03)3326121",
      "lat": 24.9914419,
      "lon": 121.3105653
    },
    {
      "name": "慈文分行",
      "link": "https://www.google.com.tw/maps/place/%E5%90%88%E4%BD%9C%E9%87%91%E5%BA%AB%E9%8A%80%E8%A1%8C+%E6%85%88%E6%96%87%E5%88%86%E8%A1%8C/@25.0076611,121.300768,17z/data=!3m1!4b1!4m5!3m4!1s0x34681fabff4016b9:0x404e5ff0724bf91f!8m2!3d25.0076611!4d121.3029567",
      "address": "桃園市桃園區中正路720號",
      "tel": "(03)3578811",
      "lat": 25.0076611,
      "lon": 121.300768
    },
    {
      "name": "南桃園分行",
      "link": "https://www.google.com.tw/maps/place/330%E6%A1%83%E5%9C%92%E5%B8%82%E6%A1%83%E5%9C%92%E5%8D%80%E4%B8%AD%E5%B1%B1%E8%B7%AF793%E8%99%9F/@24.990142,121.2873331,17z/data=!3m1!4b1!4m5!3m4!1s0x34681f138bf14f73:0x3dc09c4143a9868b!8m2!3d24.9901372!4d121.2895218",
      "address": "桃園市桃園區中山路793號",
      "tel": "(03)3692188",
      "lat": 24.990142,
      "lon": 121.2873331
    },
    {
      "name": "東桃園分行",
      "link": "https://www.google.com.tw/maps/place/330%E6%A1%83%E5%9C%92%E5%B8%82%E6%A1%83%E5%9C%92%E5%8D%80%E4%B8%AD%E8%8F%AF%E8%B7%AF12%E8%99%9F/@24.991299,121.3092713,17z/data=!3m1!4b1!4m5!3m4!1s0x34681efcde347cb9:0xbf8d30158a82401c!8m2!3d24.991299!4d121.31146",
      "address": "桃園市桃園區中華路12號",
      "tel": "(03)3355009",
      "lat": 24.991299,
      "lon": 121.3092713
    },
    {
      "name": "龜山分行",
      "link": "https://www.google.com.tw/maps/place/333%E6%A1%83%E5%9C%92%E5%B8%82%E9%BE%9C%E5%B1%B1%E5%8D%80%E8%90%AC%E5%A3%BD%E8%B7%AF%E4%BA%8C%E6%AE%B51068%E8%99%9F/@24.994584,121.3327843,17z/data=!3m1!4b1!4m5!3m4!1s0x34681e8a703eb187:0x902116648862ea75!8m2!3d24.9945",
      "address": "桃園市龜山區萬壽路二段1068號",
      "tel": "(03)3299661",
      "lat": 24.994584,
      "lon": 121.3327843
    },
    {
      "name": "迴龍分行",
      "link": "https://www.google.com.tw/maps/place/333%E6%A1%83%E5%9C%92%E5%B8%82%E9%BE%9C%E5%B1%B1%E5%8D%80%E8%90%AC%E5%A3%BD%E8%B7%AF%E4%B8%80%E6%AE%B5163%E8%99%9F/@25.0182413,121.4049148,17z/data=!3m1!4b1!4m5!3m4!1s0x34681d7db543ba87:0x88d1c63dcc7edc9b!8m2!3d25.0182",
      "address": "桃園市龜山區萬壽路一段163號",
      "tel": "(02)82098266",
      "lat": 25.0182413,
      "lon": 121.4049148
    },
    {
      "name": "林口分行",
      "link": "https://www.google.com.tw/maps/place/333%E6%A1%83%E5%9C%92%E5%B8%82%E9%BE%9C%E5%B1%B1%E5%8D%80%E6%96%87%E5%8C%96%E4%BA%8C%E8%B7%AF49%E8%99%9F/@25.0569617,121.365091,17z/data=!3m1!4b1!4m5!3m4!1s0x3442a73a216bc1f7:0x1a7c02f160e0bb70!8m2!3d25.0569617!4d121.3",
      "address": "桃園市龜山區文化二路49號及桃園市龜山區文昌一街2號",
      "tel": "(03)3183880",
      "lat": 25.0569617,
      "lon": 121.365091
    },
    {
      "name": "長庚分行",
      "link": "https://www.google.com.tw/maps/place/333%E6%A1%83%E5%9C%92%E5%B8%82%E9%BE%9C%E5%B1%B1%E5%8D%80%E5%BE%A9%E8%88%88%E8%A1%975-7%E8%99%9F/@25.06052,121.3662263,17z/data=!3m1!4b1!4m5!3m4!1s0x3442a73adf8e04d1:0x2f3929d61cb8ab77!8m2!3d25.06052!4d121.368415",
      "address": "桃園市龜山區復興街5號",
      "tel": "(03)3970781",
      "lat": 25.06052,
      "lon": 121.3662263
    },
    {
      "name": "八德分行",
      "link": "https://www.google.com.tw/maps/place/334%E6%A1%83%E5%9C%92%E5%B8%82%E5%85%AB%E5%BE%B7%E5%8D%80%E4%BB%8B%E5%A3%BD%E8%B7%AF%E4%B8%80%E6%AE%B5767%E8%99%9F/@24.963209,121.2982853,17z/data=!3m1!4b1!4m5!3m4!1s0x34681f2cf8347ba5:0xd7d44806fcef3b9f!8m2!3d24.96320",
      "address": "桃園市八德區介壽路一段767號",
      "tel": "(03)2185888",
      "lat": 24.963209,
      "lon": 121.2982853
    },
    {
      "name": "大溪分行",
      "link": "https://www.google.com.tw/maps/place/335%E6%A1%83%E5%9C%92%E5%B8%82%E5%A4%A7%E6%BA%AA%E5%8D%80%E4%BF%A1%E7%BE%A9%E8%B7%AF43%E8%99%9F/@24.884571,121.2880054,17z/data=!3m1!4b1!4m5!3m4!1s0x34681823ece882ff:0x9cd37401d86c48aa!8m2!3d24.884571!4d121.2901941",
      "address": "桃園市大溪區信義路43號",
      "tel": "(03)3874666",
      "lat": 24.884571,
      "lon": 121.2880054
    },
    {
      "name": "大園分行",
      "link": "https://www.google.com.tw/maps/place/337%E6%A1%83%E5%9C%92%E5%B8%82%E5%A4%A7%E5%9C%92%E5%8D%80%E4%B8%AD%E6%AD%A3%E6%9D%B1%E8%B7%AF47%E8%99%9F/@25.063846,121.1968803,17z/data=!3m1!4b1!4m5!3m4!1s0x3468209952593121:0x67cb66ddcb420868!8m2!3d25.063846!4d121.19",
      "address": "桃園市大園區中正東路47之1號",
      "tel": "(03)3867733",
      "lat": 25.063846,
      "lon": 121.1968803
    },
    {
      "name": "蘆竹分行",
      "link": "https://www.google.com.tw/maps/place/338%E6%A1%83%E5%9C%92%E5%B8%82%E8%98%86%E7%AB%B9%E5%8D%80%E5%A4%A7%E7%AB%B9%E8%B7%AF387%E8%99%9F/@25.020502,121.2624261,17z/data=!4m5!3m4!1s0x34681f87ba32e329:0x614a232a2e05d674!8m2!3d25.020502!4d121.2646148",
      "address": "桃園市蘆竹區大竹路387號",
      "tel": "(03)3232010",
      "lat": 25.020502,
      "lon": 121.2624261
    },
    {
      "name": "南崁分行",
      "link": "https://www.google.com.tw/maps/place/338%E6%A1%83%E5%9C%92%E5%B8%82%E8%98%86%E7%AB%B9%E5%8D%80%E5%8D%97%E4%B8%8A%E8%B7%AF11%E8%99%9F/@25.0475995,121.292581,17z/data=!4m5!3m4!1s0x3442a077d06101eb:0xdf6113aa014a719!8m2!3d25.0475995!4d121.2947697",
      "address": "桃園市蘆竹區南上路11號",
      "tel": "(03)3221199",
      "lat": 25.0475995,
      "lon": 121.292581
    }
  ],
  "新竹市": [
    {
      "name": "新竹分行",
      "link": "https://www.google.com.tw/maps/place/300%E6%96%B0%E7%AB%B9%E5%B8%82%E6%9D%B1%E5%8D%80%E4%B8%AD%E6%AD%A3%E8%B7%AF23%E8%99%9F/@24.8032168,120.968789,17z/data=!3m1!4b1!4m5!3m4!1s0x346835c21ada1d39:0xc8c5fd1fd5261c52!8m2!3d24.8032168!4d120.9709777",
      "address": "新竹市東區中正路23號",
      "tel": "(03)5244151",
      "lat": 24.8032168,
      "lon": 120.968789
    },
    {
      "name": "北新竹分行",
      "link": "https://www.google.com.tw/maps/place/300%E6%96%B0%E7%AB%B9%E5%B8%82%E5%8C%97%E5%8D%80%E5%8C%97%E5%A4%A7%E8%B7%AF168%E8%99%9F/@24.8096604,120.965499,17z/data=!3m1!4b1!4m5!3m4!1s0x346835c6df3cdc17:0x2194e6c0bb47f660!8m2!3d24.8096604!4d120.9676877",
      "address": "新竹市北區北大路168號",
      "tel": "(03)5284001",
      "lat": 24.8096604,
      "lon": 120.965499
    },
    {
      "name": "光復分行",
      "link": "https://www.google.com.tw/maps/place/300%E6%96%B0%E7%AB%B9%E5%B8%82%E6%9D%B1%E5%8D%80%E6%9D%B1%E5%85%89%E8%B7%AF57%E8%99%9F/@24.803178,120.9845815,17z/data=!3m1!4b1!4m5!3m4!1s0x346835df437059d3:0x909e626a3532eca5!8m2!3d24.803178!4d120.9867702",
      "address": "新竹市東區東光路57號",
      "tel": "(03)5753666",
      "lat": 24.803178,
      "lon": 120.9845815
    },
    {
      "name": "竹塹分行",
      "link": "https://www.google.com.tw/maps/place/300%E6%96%B0%E7%AB%B9%E5%B8%82%E6%9D%B1%E5%8D%80%E6%9D%B1%E9%96%80%E8%A1%9760%E8%99%9F/@24.8044371,120.9705433,17z/data=!3m1!4b1!4m5!3m4!1s0x346835c25180ac9b:0xfa9a2f7dd9cba361!8m2!3d24.8044371!4d120.972732",
      "address": "新竹市東區東門街60號",
      "tel": "(03)5215121",
      "lat": 24.8044371,
      "lon": 120.9705433
    },
    {
      "name": "新竹科學園區分行",
      "link": "https://www.google.com.tw/maps/place/300%E6%96%B0%E7%AB%B9%E5%B8%82%E6%9D%B1%E5%8D%80%E7%A7%91%E6%8A%80%E8%B7%AF1%E8%99%9F/@24.7821556,121.0027911,17z/data=!3m1!4b1!4m5!3m4!1s0x346836198867bc2b:0xe772b0c3d4a59b8!8m2!3d24.7821556!4d121.0049798",
      "address": "新竹市東區科技路1號(新竹科學園區)",
      "tel": "(03)5783962",
      "lat": 24.7821556,
      "lon": 121.0027911
    }
  ],
  "新竹縣": [
    {
      "name": "竹北分行",
      "link": "https://www.google.com.tw/maps/place/%E5%90%88%E4%BD%9C%E9%87%91%E5%BA%AB%E9%8A%80%E8%A1%8C/@24.828982,121.0039672,17z/data=!3m1!4b1!4m5!3m4!1s0x34683693ccb7a9c1:0x88317495935d94a3!8m2!3d24.828982!4d121.0061559",
      "address": "新竹縣竹北市光明六路261號",
      "tel": "(03)5546000",
      "lat": 24.828982,
      "lon": 121.0039672
    },
    {
      "name": "六家分行",
      "link": "https://www.google.com.tw/maps/place/%E5%90%88%E4%BD%9C%E9%87%91%E5%BA%AB%E9%8A%80%E8%A1%8C%E5%85%AD%E5%AE%B6%E5%88%86%E8%A1%8C/@24.8206042,121.0249683,17z/data=!4m5!3m4!1s0x346836fb5cad70b5:0x3aa3aaebb0a83038!8m2!3d24.8206042!4d121.027157",
      "address": "新竹縣竹北市光明六路東一段259號",
      "tel": "(03)6586969",
      "lat": 24.8206042,
      "lon": 121.0249683
    },
    {
      "name": "東竹北分行",
      "link": "https://www.google.com.tw/maps/place/302%E6%96%B0%E7%AB%B9%E7%B8%A3%E7%AB%B9%E5%8C%97%E5%B8%82%E4%B8%AD%E6%AD%A3%E6%9D%B1%E8%B7%AF343%E8%99%9F/@24.835478,121.008935,17z/data=!4m5!3m4!1s0x346836eaaf0286f7:0x54c24ae6d8a9aaa!8m2!3d24.835478!4d121.0111237",
      "address": "新竹縣竹北市中正東路343號",
      "tel": "(03)5540108",
      "lat": 24.835478,
      "lon": 121.008935
    },
    {
      "name": "竹東分行",
      "link": "https://www.google.com.tw/maps/place/310%E6%96%B0%E7%AB%B9%E7%B8%A3%E7%AB%B9%E6%9D%B1%E9%8E%AE%E9%95%B7%E6%98%A5%E8%B7%AF%E4%BA%8C%E6%AE%B592%E8%99%9F/@24.7390522,121.0853333,17z/data=!3m1!4b1!4m5!3m4!1s0x346847e42e49eeed:0x72dbad81b9e6768!8m2!3d24.739052",
      "address": "新竹縣竹東鎮長春路二段92號",
      "tel": "(03)5963126",
      "lat": 24.7390522,
      "lon": 121.0853333
    }
  ],
  "宜蘭縣": [
    {
      "name": "宜蘭分行",
      "link": "https://www.google.com.tw/maps/place/260%E5%AE%9C%E8%98%AD%E7%B8%A3%E5%AE%9C%E8%98%AD%E5%B8%82%E4%B8%AD%E5%B1%B1%E8%B7%AF%E4%B8%89%E6%AE%B530%E8%99%9F/@24.7554972,121.7501007,17z/data=!3m1!4b1!4m5!3m4!1s0x3467e4c4eaac6ca7:0x889268f18edb8932!8m2!3d24.75549",
      "address": "宜蘭縣宜蘭市中山路三段30號",
      "tel": "(03)9323911",
      "lat": 24.7554972,
      "lon": 121.7501007
    },
    {
      "name": "礁溪分行",
      "link": "https://www.google.com.tw/maps/place/262%E5%AE%9C%E8%98%AD%E7%B8%A3%E7%A4%81%E6%BA%AA%E9%84%89%E7%A4%81%E6%BA%AA%E8%B7%AF%E4%BA%94%E6%AE%B532%E8%99%9F/@24.824846,121.7688762,17z/data=!4m5!3m4!1s0x3467fa49593b7ac3:0x449f5aca3ee78aef!8m2!3d24.824846!4d121.7",
      "address": "宜蘭縣礁溪鄉礁溪路五段32號",
      "tel": "(03)9887100",
      "lat": 24.824846,
      "lon": 121.7688762
    },
    {
      "name": "羅東分行",
      "link": "https://www.google.com.tw/maps/place/265%E5%AE%9C%E8%98%AD%E7%B8%A3%E7%BE%85%E6%9D%B1%E9%8E%AE%E5%85%AC%E6%AD%A3%E8%B7%AF51-1%E8%99%9F/@24.6778873,121.7706576,17z/data=!4m5!3m4!1s0x3467e678e2ef2fb3:0x526b549103d27e3c!8m2!3d24.6778873!4d121.7728463",
      "address": "宜蘭縣羅東鎮公正路51號",
      "tel": "(03)9545191",
      "lat": 24.6778873,
      "lon": 121.7706576
    },
    {
      "name": "北羅東分行",
      "link": "https://www.google.com.tw/maps/place/265%E5%AE%9C%E8%98%AD%E7%B8%A3%E7%BE%85%E6%9D%B1%E9%8E%AE%E4%B8%AD%E6%AD%A3%E5%8C%97%E8%B7%AF54%E8%99%9F/@24.679906,121.7696636,17z/data=!3m1!4b1!4m5!3m4!1s0x3467e678bb644eab:0x5ee7e691dca198b1!8m2!3d24.679906!4d121.77",
      "address": "宜蘭縣羅東鎮中正北路54號",
      "tel": "(03)9545795",
      "lat": 24.679906,
      "lon": 121.7696636
    },
    {
      "name": "蘇澳分行",
      "link": "https://www.google.com.tw/maps/place/270%E5%AE%9C%E8%98%AD%E7%B8%A3%E8%98%87%E6%BE%B3%E9%8E%AE%E6%BC%81%E6%B8%AF%E8%B7%AF56%E8%99%9F/@24.5824747,121.8653813,17z/data=!3m1!4b1!4m5!3m4!1s0x3467e9d0759906d3:0x9dfb3e4245198391!8m2!3d24.5824747!4d121.86757",
      "address": "宜蘭縣蘇澳鎮漁港路56號",
      "tel": "(03)9962521",
      "lat": 24.5824747,
      "lon": 121.8653813
    }
  ],
  "花蓮縣": [
    {
      "name": "花蓮分行",
      "link": "https://www.google.com.tw/maps/place/970%E8%8A%B1%E8%93%AE%E7%B8%A3%E8%8A%B1%E8%93%AE%E5%B8%82%E4%B8%AD%E5%B1%B1%E8%B7%AF124%E8%99%9F/@23.9760195,121.6081292,17z/data=!3m1!4b1!4m5!3m4!1s0x34689fc1ef85b8b5:0x9eca2ef95561fb97!8m2!3d23.9760195!4d121.6103179",
      "address": "花蓮縣花蓮市中山路124號",
      "tel": "(03)8338111",
      "lat": 23.9760195,
      "lon": 121.6081292
    },
    {
      "name": "北花蓮分行",
      "link": "https://www.google.com.tw/maps/place/970%E8%8A%B1%E8%93%AE%E7%B8%A3%E8%8A%B1%E8%93%AE%E5%B8%82%E4%B8%AD%E5%B1%B1%E8%B7%AF371%E8%99%9F/@23.9813472,121.6035769,17z/data=!3m1!4b1!4m5!3m4!1s0x34689fc0abe46f0b:0x57e4a2c87f8469cb!8m2!3d23.9813472!4d121.6057656",
      "address": "花蓮縣花蓮市中山路371號",
      "tel": "(03)8350151",
      "lat": 23.9813472,
      "lon": 121.6035769
    }
  ],
  "台東縣": [
    {
      "name": "台東分行",
      "link": "https://www.google.com.tw/maps/place/950%E5%8F%B0%E6%9D%B1%E7%B8%A3%E5%8F%B0%E6%9D%B1%E5%B8%82%E4%B8%AD%E8%8F%AF%E8%B7%AF%E4%B8%80%E6%AE%B5336%E8%99%9F/@22.755,121.1515328,17z/data=!3m1!4b1!4m5!3m4!1s0x346fb93f33185d4b:0xb071fe1368644619!8m2!3d22.755!4d12",
      "address": "台東縣台東市中華路一段336號",
      "tel": "(089)323011",
      "lat": 22.755,
      "lon": 121.1515328
    },
    {
      "name": "東台東分行",
      "link": "https://www.google.com.tw/maps/place/950%E5%8F%B0%E6%9D%B1%E7%B8%A3%E5%8F%B0%E6%9D%B1%E5%B8%82%E5%A4%A7%E5%90%8C%E8%B7%AF181%E8%99%9F/@22.7534992,121.1505658,17z/data=!3m1!4b1!4m5!3m4!1s0x346fb93ec52a072f:0xb62c9d90d8428541!8m2!3d22.7534992!4d121.1527545",
      "address": "台東縣台東市大同路181號",
      "tel": "(089)325130",
      "lat": 22.7534992,
      "lon": 121.1505658
    }
  ],
  "海外": [
    {
      "name": "天津分行",
      "address": "300041中國天津市和平區濱江道1號金之谷大廈1號樓18樓1801,1802,1803,1804,1807室",
      "tel": "+86-22-58526999",
      "link": "https://www.tcb-bank.com.tw/Documents/Tianjin.html"
    },
    {
      "name": "蘇州高新支行",
      "address": "215011中國江蘇省蘇州市高新區獅山路28號蘇州高新廣場36樓3601室",
      "tel": "+86-512-86868168",
      "link": "https://www.tcb-bank.com.tw/Documents/gaoxin.html"
    },
    {
      "name": "金邊分行",
      "address": "NO. 171, Norodom Blvd Corner Street 322, Sangkat Boeng Keng Kang Ti Muoy, Khan Chamkarmon, Phnom Penh, Cambodia",
      "tel": "+855-23-430800",
      "link": "https://www.tcb-bank.com.tw/Documents/PhnomPenh.html"
    },
    {
      "name": "雪梨分行",
      "address": "Suite 101, Level 1, 50 Carrington Street, Sydney NSW 2000, Australia",
      "tel": "+61-2-92990068",
      "link": "https://www.tcb-bank.com.tw/Documents/sydney.html"
    },
    {
      "name": "蘇州分行",
      "address": "215028中國江蘇省蘇州市蘇州工業園區華池街圓融時代廣場24幢1601室",
      "tel": "+86-512-62953336",
      "link": "https://www.tcb-bank.com.tw/Documents/suzhou.html"
    },
    {
      "name": "香港分行",
      "address": "香港灣仔告士打道108號光大中心13樓",
      "tel": "+852-25981128",
      "link": "http://www.tcb-bank.com.hk/"
    },
    {
      "name": "馬尼拉分行",
      "address": "26th Floor Citibank Tower, 8741,  Paseo de Roxas, Makati, Metro Manila, The Philippines",
      "tel": "+632-88481959",
      "link": "https://www.tcb-bank.com.tw/Documents/manila.html"
    },
    {
      "name": "洛杉磯分行",
      "address": "601, South Figueroa St., Suite 3500, Los Angeles,CA 90017, USA",
      "tel": "+1-213-4895433",
      "link": "https://www.tcb-bank.com.tw/Documents/LA.html"
    },
    {
      "name": "西雅圖分行",
      "address": "1201, Third Ave., Suite 1200,  Seattle WA 98101, USA",
      "tel": "+1-206-5872300",
      "link": "https://www.tcb-bank.com.tw/Documents/seattle.html"
    },
    {
      "name": "臺灣聯合銀行",
      "address": "1st Floor, Square de Meeus 1, 1000 Brussels, Belgium",
      "tel": "+322-2305359",
      "link": "http://www.utb-bank.be/"
    },
    {
      "name": "北京代表人辦事處",
      "address": "100004 中國北京市朝陽區建國門外大街甲24號東海中心507室",
      "tel": "+86-10-65188173",
      "link": "https://www.tcb-bank.com.tw/Documents/beijing.html"
    },
    {
      "name": "福州分行",
      "address": "350000中國福建省福州市台江區光明南路1號升龍匯金中心26層2608室",
      "tel": "+86-591-86320069",
      "link": "https://www.tcb-bank.com.tw/Documents/Fuzhou.html"
    },
    {
      "name": "德他拉支行",
      "address": "Tuek Thla Building No. A111, Confederation de la Russie Blvd Corner Northbridge Street, Sangkat Tuek thla, Khan Saen Sok, Phnom Penh, Cambodia.",
      "tel": "+855-23-430703",
      "link": "https://www.tcb-bank.com.tw/Documents/TuekThla.html"
    },
    {
      "name": "菩森芷支行",
      "address": "Building No. 62, National Road 4, Sangkat Chaom Chau, Khan Pur Senchey, Phnom Penh, Cambodia",
      "tel": "+855-23-430705"
    },
    {
      "name": "仰光代表人辦事處",
      "address": "Unit No. 08-01, Level 8, Union Financial Centre (UFC), Corner of Maharbandoola Road and Thein Phyu Road, Botahtaung Township, Yangon, Myanmar",
      "tel": "+95-18610478"
    },
    {
      "name": "紐約分行",
      "address": "88 Pine Street, 31st Floor, New York, New York 10005, USA",
      "tel": "+1-212-6341818",
      "link": "https://www.tcb-bank.com.tw/Documents/NewYork_Branch.html"
    },
    {
      "name": "暹粒支行",
      "address": "No. 0583, National road No.6A,Chongkaosou Village, Sangkat Sla kram, Krong Siem Reap,Siemreap Province, Cambodia",
      "tel": "+855-63-765595"
    },
    {
      "name": "長沙分行",
      "address": "410003中國湖南省長沙市開福區芙蓉中路一段416號泊富國際廣場寫字樓28層021-023單元",
      "tel": "+86-731-8823-2259",
      "link": "https://www.tcb-bank.com.tw/Documents/Changsha_Branch.html"
    },
    {
      "name": "墨爾本分行",
      "address": "Suite 2, Level 2, 356 Collins Street, Melbourne, Vic 3000, Australia",
      "tel": "+61-3-99771800或(02)77085525",
      "link": "https://www.tcb-bank.com.tw/Documents/melbourne.html"
    },
    {
      "name": "市中心支行",
      "address": "NO. A2-2 ,Street 169, Sangkat Veal Vong, Khan Prampir Meakkakra, Phnom Penh, Cambodia",
      "tel": "+855-23-430058"
    },
    {
      "name": "永盛支行",
      "address": "No. 34-35, Preah Monireth Blvd.(217), Phum Damnak Thum, Sangkat Stueng Mean Chey 2, Khan Mean Chey, Phnom Penh, Cambodia.",
      "tel": "+855-23-722381"
    },
    {
      "name": "西哈努克支行",
      "address": "No.170-172, Street Ou 01, Phum Muoy, Sangkat Buon,Preah Sihanouk Ville, Preah Sihanouk Province, Cambodia.",
      "tel": "+855-34-214888"
    },
    {
      "name": "堆谷支行",
      "address": "Building 150B1＆150D1, St.516, Phum 13, Sangkat Boeng Kak Ti Muoy, Khan Tuol Kouk,Phnom Penh, Cambodia.",
      "tel": "+855-23-725180"
    },
    {
      "name": "永珍分行",
      "address": "Unit 03 Dongpayna Road, Saphanthong Neua Village, Sisattanak District, Vientiane Capital, Lao PDR",
      "tel": "+856-21-415666",
      "link": "https://www.tcb-bank.com.tw/Documents/Vientiane_Branch.html"
    }
  ],
  "澎湖縣": [
    {
      "name": "澎湖分行",
      "link": "https://www.google.com/maps/place/880%E6%BE%8E%E6%B9%96%E7%B8%A3%E9%A6%AC%E5%85%AC%E5%B8%82%E4%BB%81%E6%84%9B%E8%B7%AF26%E8%99%9F/@23.5655595,119.5636346,17z/data=!3m1!4b1!4m5!3m4!1s0x346c5af2d7b9f5ad:0xe3abfe03ac544ab5!8m2!3d23.5655595!4d119.5658233",
      "address": "澎湖縣馬公市仁愛路26號",
      "tel": "(06)9272766",
      "lat": 23.5655595,
      "lon": 119.5636346
    }
  ],
  "苗栗縣": [
    {
      "name": "頭份分行",
      "link": "https://www.google.com.tw/maps/place/351%E8%8B%97%E6%A0%97%E7%B8%A3%E9%A0%AD%E4%BB%BD%E5%B8%82%E4%BB%81%E6%84%9B%E8%B7%AF70%E8%99%9F/@24.6862973,120.9070004,17z/data=!3m1!4b1!4m5!3m4!1s0x34684cc7b409f6d3:0xc031223dcfd0e274!8m2!3d24.6862924!4d120.9091891",
      "address": "苗栗縣頭份市仁愛路70號",
      "tel": "(037)665115",
      "lat": 24.6862973,
      "lon": 120.9070004
    },
    {
      "name": "竹南分行",
      "link": "https://www.google.com.tw/maps/place/350%E8%8B%97%E6%A0%97%E7%B8%A3%E7%AB%B9%E5%8D%97%E9%8E%AE%E5%A4%A7%E7%87%9F%E8%B7%AF218%E8%99%9F/@24.6874606,120.87072,17z/data=!3m1!4b1!4m5!3m4!1s0x3469b33d5f929993:0x8818f90c5e029e9a!8m2!3d24.6874557!4d120.8729087",
      "address": "苗栗縣竹南鎮大營路218號",
      "tel": "(037)466790",
      "lat": 24.6874606,
      "lon": 120.87072
    },
    {
      "name": "苗栗分行",
      "link": "https://www.google.com.tw/maps/place/360%E8%8B%97%E6%A0%97%E7%B8%A3%E8%8B%97%E6%A0%97%E5%B8%82%E4%B8%AD%E6%AD%A3%E8%B7%AF660%E8%99%9F/@24.5556783,120.8171189,17z/data=!3m1!4b1!4m5!3m4!1s0x3469abf6e9ed99c9:0xb8c07b5892416bba!8m2!3d24.5556734!4d120.8193076",
      "address": "苗栗縣苗栗市中正路660號",
      "tel": "(037)320921",
      "lat": 24.5556783,
      "lon": 120.8171189
    },
    {
      "name": "北苗栗分行",
      "link": "https://www.google.com.tw/maps/place/360%E8%8B%97%E6%A0%97%E7%B8%A3%E8%8B%97%E6%A0%97%E5%B8%82%E4%B8%AD%E6%AD%A3%E8%B7%AF396%E8%99%9F/@24.5610758,120.8202157,17z/data=!3m1!4b1!4m5!3m4!1s0x3469ac0a3705a2a9:0x13e211534b02e6aa!8m2!3d24.5610709!4d120.8224044",
      "address": "苗栗縣苗栗市中正路396號",
      "tel": "(037)351111",
      "lat": 24.5610758,
      "lon": 120.8202157
    }
  ],
  "台中市": [
    {
      "name": "台中分行",
      "link": "https://www.google.com.tw/maps/place/400%E5%8F%B0%E4%B8%AD%E5%B8%82%E4%B8%AD%E5%8D%80%E8%87%AA%E7%94%B1%E8%B7%AF%E4%BA%8C%E6%AE%B52%E8%99%9F/@24.1378908,120.6782253,17z/data=!3m1!4b1!4m5!3m4!1s0x34693d13caa9021b:0xf35bf28adad5048d!8m2!3d24.1378859!4d120.6",
      "address": "台中市中區自由路二段2號",
      "tel": "(04)22245121",
      "lat": 24.1378908,
      "lon": 120.6782253
    },
    {
      "name": "中興分行",
      "link": "https://www.google.com.tw/maps/place/400%E5%8F%B0%E4%B8%AD%E5%B8%82%E4%B8%AD%E5%8D%80%E5%85%AC%E5%9C%92%E8%B7%AF5%E8%99%9F/@24.1414312,120.6831615,17z/data=!4m5!3m4!1s0x34693d6b306bc1e9:0xb19a487584eb9b89!8m2!3d24.1414263!4d120.6853502",
      "address": "台中市中區公園路5號",
      "tel": "(04)22241161",
      "lat": 24.1414312,
      "lon": 120.6831615
    },
    {
      "name": "精武分行",
      "link": "https://www.google.com.tw/maps/place/401%E5%8F%B0%E4%B8%AD%E5%B8%82%E6%9D%B1%E5%8D%80%E7%B2%BE%E6%AD%A6%E6%9D%B1%E8%B7%AF170%E8%99%9F/@24.1489231,120.7073576,17z/data=!3m1!4b1!4m5!3m4!1s0x34693d5303d8a6e1:0x7e91a5071c2b7d9!8m2!3d24.1489182!4d120.7095463",
      "address": "台中市東區精武東路170號",
      "tel": "(04)22116358",
      "lat": 24.1489231,
      "lon": 120.7073576
    },
    {
      "name": "南台中分行",
      "link": "https://www.google.com.tw/maps/place/402%E5%8F%B0%E4%B8%AD%E5%B8%82%E5%8D%97%E5%8D%80%E5%BF%A0%E6%98%8E%E5%8D%97%E8%B7%AF789%E8%99%9F/@24.123375,120.6587387,17z/data=!3m1!4b1!4m5!3m4!1s0x34693c54983ccf43:0x9ffb2c90dc1c1098!8m2!3d24.1233701!4d120.6609274",
      "address": "台中市南區忠明南路789號",
      "tel": "(04)22617211",
      "lat": 24.123375,
      "lon": 120.6587387
    },
    {
      "name": "建成分行",
      "link": "https://www.google.com.tw/maps/place/402%E5%8F%B0%E4%B8%AD%E5%B8%82%E5%8D%97%E5%8D%80%E5%BB%BA%E6%88%90%E8%B7%AF1499%E8%99%9F/@24.1269579,120.6774233,17z/data=!3m1!4b1!4m5!3m4!1s0x34693d1b6e3cde89:0xe11bfdca872c9c01!8m2!3d24.126953!4d120.679612",
      "address": "台中市南區建成路1499號",
      "tel": "(04)22873311",
      "lat": 24.1269579,
      "lon": 120.6774233
    },
    {
      "name": "東台中分行",
      "link": "https://www.google.com.tw/maps/place/402%E5%8F%B0%E4%B8%AD%E5%B8%82%E5%8D%97%E5%8D%80%E5%BE%A9%E8%88%88%E8%B7%AF%E4%B8%89%E6%AE%B5380%E8%99%9F/@24.1340698,120.680408,17z/data=!3m1!4b1!4m5!3m4!1s0x34693d11255209e3:0xfb539779fda23b1d!8m2!3d24.1340649!4d120.",
      "address": "台中市南區復興路三段380號",
      "tel": "(04)22203161",
      "lat": 24.1340698,
      "lon": 120.680408
    },
    {
      "name": "美村分行",
      "link": "https://www.google.com.tw/maps/place/402%E5%8F%B0%E4%B8%AD%E5%B8%82%E5%8D%97%E5%8D%80%E5%BE%A9%E8%88%88%E8%B7%AF%E4%BA%8C%E6%AE%B5136%E8%99%9F/@24.125125,120.6621143,17z/data=!3m1!4b1!4m5!3m4!1s0x34693daac137955d:0xd4c03f639ac0a2b2!8m2!3d24.125125!4d120.6",
      "address": "台中市南區復興路二段136號",
      "tel": "(04)22614377",
      "lat": 24.125125,
      "lon": 120.6621143
    },
    {
      "name": "中權分行",
      "link": "https://www.google.com.tw/maps/place/403%E5%8F%B0%E4%B8%AD%E5%B8%82%E8%A5%BF%E5%8D%80%E5%8F%B0%E7%81%A3%E5%A4%A7%E9%81%93%E4%B8%80%E6%AE%B5728%E8%99%9F7/@24.1477957,120.671964,17z/data=!4m5!3m4!1s0x34693d73cef21321:0x1d124b18222e5c8b!8m2!3d24.1477908!4d12",
      "address": "台中市西區臺灣大道一段728號",
      "tel": "(04)22037979",
      "lat": 24.1477957,
      "lon": 120.671964
    },
    {
      "name": "新中分行",
      "link": "https://www.google.com.tw/maps/place/403%E5%8F%B0%E4%B8%AD%E5%B8%82%E8%A5%BF%E5%8D%80%E6%B0%91%E6%AC%8A%E8%B7%AF91%E8%99%9F/@24.1380697,120.6773445,17z/data=!3m1!4b1!4m5!3m4!1s0x34693d123870ecfb:0xebbcb2b928a11409!8m2!3d24.1380648!4d120.6795332",
      "address": "台中市西區民權路91號",
      "tel": "(04)22237711",
      "lat": 24.1380697,
      "lon": 120.6773445
    },
    {
      "name": "忠明南路分行",
      "link": "https://www.google.com.tw/maps/place/403%E5%8F%B0%E4%B8%AD%E5%B8%82%E8%A5%BF%E5%8D%80%E5%BF%A0%E6%98%8E%E5%8D%97%E8%B7%AF451%E8%99%9F/@24.1378483,120.6554155,17z/data=!3m1!4b1!4m5!3m4!1s0x34693da5a1178c67:0x1ba5769d4d53ab71!8m2!3d24.1378434!4d120.6576042",
      "address": "台中市西區忠明南路451號",
      "tel": "(04)23764066",
      "lat": 24.1378483,
      "lon": 120.6554155
    },
    {
      "name": "北台中分行",
      "link": "https://www.google.com.tw/maps/place/404%E5%8F%B0%E4%B8%AD%E5%B8%82%E5%8C%97%E5%8D%80%E4%BA%94%E6%AC%8A%E8%B7%AF375%E8%99%9F/@24.1527709,120.6784681,17z/data=!3m1!4b1!4m5!3m4!1s0x34693d658190cedd:0x9a8f12e98860d72d!8m2!3d24.152766!4d120.6806568",
      "address": "台中市北區五權路375號",
      "tel": "(04)22055588",
      "lat": 24.1527709,
      "lon": 120.6784681
    },
    {
      "name": "衛道分行",
      "link": "https://www.google.com.tw/maps/place/404%E5%8F%B0%E4%B8%AD%E5%B8%82%E5%8C%97%E5%8D%80%E4%B8%AD%E6%B8%85%E8%B7%AF%E4%B8%80%E6%AE%B5447%E8%99%9F/@24.1655258,120.6713664,17z/data=!3m1!4b1!4m5!3m4!1s0x346917d661ace54d:0x3c06a921a07eedce!8m2!3d24.1655209!4d120",
      "address": "台中市北區中清路一段447號",
      "tel": "(04)22987988",
      "lat": 24.1655258,
      "lon": 120.6713664
    },
    {
      "name": "北屯分行",
      "link": "https://www.google.com.tw/maps/place/406%E5%8F%B0%E4%B8%AD%E5%B8%82%E5%8C%97%E5%B1%AF%E5%8D%80%E6%96%87%E5%BF%83%E8%B7%AF%E5%9B%9B%E6%AE%B5670%E8%99%9F/@24.1717789,120.6842283,17z/data=!3m1!4b1!4m5!3m4!1s0x346917dd2692134d:0x79c357016333ec91!8m2!3d24.1717",
      "address": "台中市北屯區文心路四段670號",
      "tel": "(04)22301199",
      "lat": 24.1717789,
      "lon": 120.6842283
    },
    {
      "name": "軍功分行",
      "link": "https://www.google.com.tw/maps/place/%E5%90%88%E4%BD%9C%E9%87%91%E5%BA%AB%E9%8A%80%E8%A1%8C+%E8%BB%8D%E5%8A%9F%E5%88%86%E8%A1%8C/@24.1761438,120.7200643,17z/data=!3m1!4b1!4m5!3m4!1s0x34691822bcdfb32b:0x6d91c94852c9d95f!8m2!3d24.1761389!4d120.722253",
      "address": "台中市北屯區東山路一段315號",
      "tel": "(04)22390128",
      "lat": 24.1761438,
      "lon": 120.7200643
    },
    {
      "name": "太原分行",
      "link": "https://www.google.com.tw/maps/place/406%E5%8F%B0%E4%B8%AD%E5%B8%82%E5%8C%97%E5%B1%AF%E5%8D%80%E5%8C%97%E5%B1%AF%E8%B7%AF247%E8%99%9F/@24.165552,120.6921324,17z/data=!3m1!4b1!4m5!3m4!1s0x346917e153378825:0x98720949a6f26b93!8m2!3d24.1655471!4d120.6943211",
      "address": "台中市北屯區北屯路247號",
      "tel": "(04)22334291",
      "lat": 24.165552,
      "lon": 120.6921324
    },
    {
      "name": "松竹分行",
      "link": "https://www.google.com.tw/maps/place/406%E5%8F%B0%E4%B8%AD%E5%B8%82%E5%8C%97%E5%B1%AF%E5%8D%80%E6%98%8C%E5%B9%B3%E8%B7%AF%E4%BA%8C%E6%AE%B595%E8%99%9F/@24.1933178,120.6802103,17z/data=!3m1!4b1!4m5!3m4!1s0x346917bb68db2593:0x39edaf07892c0c67!8m2!3d24.19331",
      "address": "台中市北屯區昌平路二段95號",
      "tel": "(04)24228751",
      "lat": 24.1933178,
      "lon": 120.6802103
    },
    {
      "name": "中清分行",
      "link": "https://www.google.com.tw/maps/place/406%E5%8F%B0%E4%B8%AD%E5%B8%82%E5%8C%97%E5%B1%AF%E5%8D%80%E4%B8%AD%E6%B8%85%E8%B7%AF%E4%BA%8C%E6%AE%B517%E8%99%9F/@24.1743861,120.6688594,17z/data=!3m1!4b1!4m5!3m4!1s0x346917d224aa567f:0xd05a74274439c326!8m2!3d24.17438",
      "address": "台中市北屯區中清路二段17號",
      "tel": "(04)22913176",
      "lat": 24.1743861,
      "lon": 120.6688594
    },
    {
      "name": "昌平分行",
      "link": "https://www.google.com.tw/maps/place/406%E5%8F%B0%E4%B8%AD%E5%B8%82%E5%8C%97%E5%B1%AF%E5%8D%80%E6%98%8C%E5%B9%B3%E8%B7%AF%E4%B8%80%E6%AE%B5163%E8%99%9F/@24.1766189,120.6878573,17z/data=!3m1!4b1!4m5!3m4!1s0x346917e9f18d3a73:0xce6f925c8da22383!8m2!3d24.1766",
      "address": "台中市北屯區昌平路一段163號",
      "tel": "(04)22443037",
      "lat": 24.1766189,
      "lon": 120.6878573
    },
    {
      "name": "西台中分行",
      "link": "https://www.google.com.tw/maps/place/407%E5%8F%B0%E4%B8%AD%E5%B8%82%E8%A5%BF%E5%B1%AF%E5%8D%80%E6%BC%A2%E5%8F%A3%E8%B7%AF%E4%BA%8C%E6%AE%B5151%E8%99%9F/@24.1652917,120.6595447,17z/data=!3m1!4b1!4m5!3m4!1s0x34693d80ddb5fcc5:0x9d7c708f166f2ffa!8m2!3d24.1652",
      "address": "台中市西屯區漢口路二段151號",
      "tel": "(04)23170311",
      "lat": 24.1652917,
      "lon": 120.6595447
    },
    {
      "name": "西屯分行",
      "link": "https://www.google.com.tw/maps/place/407%E5%8F%B0%E4%B8%AD%E5%B8%82%E8%A5%BF%E5%B1%AF%E5%8D%80%E6%96%87%E5%BF%83%E8%B7%AF%E4%B8%89%E6%AE%B567%E8%99%9F/@24.1652449,120.6485893,17z/data=!3m1!4b1!4m5!3m4!1s0x34693d893a91f569:0x40fe530f67296e87!8m2!3d24.16524",
      "address": "台中市西屯區文心路三段67號",
      "tel": "(04)23112411",
      "lat": 24.1652449,
      "lon": 120.6485893
    },
    {
      "name": "永安分行",
      "link": "https://www.google.com.tw/maps/place/407%E5%8F%B0%E4%B8%AD%E5%B8%82%E8%A5%BF%E5%B1%AF%E5%8D%80%E6%B0%B8%E7%A6%8F%E8%B7%AF15%E8%99%9F/@24.1820188,120.6169953,17z/data=!3m1!4b1!4m5!3m4!1s0x346915fe088b3a33:0x684996d664a21c62!8m2!3d24.1820139!4d120.619184",
      "address": "台中市西屯區永褔路15號",
      "tel": "(04)24623181",
      "lat": 24.1820188,
      "lon": 120.6169953
    },
    {
      "name": "朝馬分行",
      "link": "https://www.google.com.tw/maps/place/407%E5%8F%B0%E4%B8%AD%E5%B8%82%E8%A5%BF%E5%B1%AF%E5%8D%80%E5%8F%B0%E7%81%A3%E5%A4%A7%E9%81%93%E4%B8%89%E6%AE%B5526%E8%99%9F/@24.1685409,120.6384943,17z/data=!3m1!4b1!4m5!3m4!1s0x34693df4f1a60e95:0x63b755c86370dcbb!8m2!",
      "address": "台中市西屯區臺灣大道三段526號",
      "tel": "(04)27013115",
      "lat": 24.1685409,
      "lon": 120.6384943
    },
    {
      "name": "逢甲分行",
      "link": "https://www.google.com.tw/maps/place/407%E5%8F%B0%E4%B8%AD%E5%B8%82%E8%A5%BF%E5%B1%AF%E5%8D%80%E8%A5%BF%E5%B1%AF%E8%B7%AF%E4%BA%8C%E6%AE%B5252%E8%99%9F/@24.1707806,120.6449364,17z/data=!3m1!4b1!4m5!3m4!1s0x346916209ff3b0f5:0x85ef19d69d61273f!8m2!3d24.1707",
      "address": "台中市西屯區西屯路二段252號",
      "tel": "(04)27089075",
      "lat": 24.1707806,
      "lon": 120.6449364
    },
    {
      "name": "中港分行",
      "link": "https://www.google.com.tw/maps/place/407%E5%8F%B0%E4%B8%AD%E5%B8%82%E8%A5%BF%E5%B1%AF%E5%8D%80%E6%96%87%E5%BF%83%E8%B7%AF%E4%B8%89%E6%AE%B5152%E8%99%9F/@24.1679888,120.6524933,17z/data=!3m1!4b1!4m5!3m4!1s0x34693d87e17f8a83:0x7153e5f6d1add7a9!8m2!3d24.1679",
      "address": "台中市西屯區文心路三段152號",
      "tel": "(04)23138811",
      "lat": 24.1679888,
      "lon": 120.6524933
    },
    {
      "name": "水湳分行",
      "link": "https://www.google.com.tw/maps/place/%E5%90%88%E5%BA%AB%E9%87%91%E5%BA%AB%E9%8A%80%E8%A1%8C+%E6%B0%B4%E6%B9%B3%E5%88%86%E8%A1%8C/@24.1842825,120.646152,17z/data=!3m1!4b1!4m5!3m4!1s0x3469163c648bff5b:0xde09825a10f672f3!8m2!3d24.1842776!4d120.6483407",
      "address": "台中市西屯區漢翔路2號",
      "tel": "(04)27029354",
      "lat": 24.1842825,
      "lon": 120.646152
    },
    {
      "name": "五權分行",
      "link": "https://www.google.com.tw/maps/place/408%E5%8F%B0%E4%B8%AD%E5%B8%82%E5%8D%97%E5%B1%AF%E5%8D%80%E5%85%AC%E7%9B%8A%E8%B7%AF%E4%BA%8C%E6%AE%B561%E8%99%9F/@24.1506539,120.6482893,17z/data=!3m1!4b1!4m5!3m4!1s0x34693d965c93dccd:0x1779a393b0d63c39!8m2!3d24.15064",
      "address": "台中市南屯區公益路二段61號",
      "tel": "(04)23229191",
      "lat": 24.1506539,
      "lon": 120.6482893
    },
    {
      "name": "南屯分行",
      "link": "https://www.google.com.tw/maps/place/408%E5%8F%B0%E4%B8%AD%E5%B8%82%E5%8D%97%E5%B1%AF%E5%8D%80%E4%BA%94%E6%AC%8A%E8%A5%BF%E8%B7%AF%E4%BA%8C%E6%AE%B5103%E8%99%9F/@24.1399063,120.6495424,17z/data=!3m1!4b1!4m5!3m4!1s0x34693dbaff4a6689:0xffdba6cc3ab29e97!8m2!",
      "address": "台中市南屯區五權西路二段103號",
      "tel": "(04)24752171",
      "lat": 24.1399063,
      "lon": 120.6495424
    },
    {
      "name": "黎明分行",
      "link": "https://www.google.com.tw/maps/place/408%E5%8F%B0%E4%B8%AD%E5%B8%82%E5%8D%97%E5%B1%AF%E5%8D%80%E9%BB%8E%E6%98%8E%E8%B7%AF%E4%B8%80%E6%AE%B51064%E8%99%9F/@24.1398246,120.6361582,17z/data=!3m1!4b1!4m5!3m4!1s0x34693dc8bb556593:0x89566b37f5754437!8m2!3d24.139",
      "address": "台中市南屯區黎明路一段1064號",
      "tel": "(04)23892493",
      "lat": 24.1398246,
      "lon": 120.6361582
    },
    {
      "name": "文心分行",
      "link": "https://www.google.com.tw/maps/place/408%E5%8F%B0%E4%B8%AD%E5%B8%82%E5%8D%97%E5%B1%AF%E5%8D%80%E6%96%87%E5%BF%83%E8%B7%AF%E4%B8%80%E6%AE%B5316%E8%99%9F/@24.1479369,120.6448532,17z/data=!3m1!4b1!4m5!3m4!1s0x34693dbe40a2092d:0x491772f4852c5553!8m2!3d24.1479",
      "address": "台中市南屯區文心路一段316號",
      "tel": "(04)23223300",
      "lat": 24.1479369,
      "lon": 120.6448532
    },
    {
      "name": "太平分行",
      "link": "https://www.google.com.tw/maps/place/406%E5%8F%B0%E4%B8%AD%E5%B8%82%E5%A4%AA%E5%B9%B3%E5%8D%80%E4%B8%AD%E8%88%88%E8%B7%AF84%E8%99%9F/@24.1277954,120.7140061,17z/data=!3m1!4b1!4m5!3m4!1s0x346922cc6963fe3b:0x7e8edbb6adf5117b!8m2!3d24.1277905!4d120.7161948",
      "address": "台中市太平區中興路84號",
      "tel": "(04)22761515",
      "lat": 24.1277954,
      "lon": 120.7140061
    },
    {
      "name": "大里分行",
      "link": "https://www.google.com.tw/maps/place/412%E5%8F%B0%E4%B8%AD%E5%B8%82%E5%A4%A7%E9%87%8C%E5%8D%80%E4%B8%AD%E8%88%88%E8%B7%AF%E4%B8%80%E6%AE%B5384%E8%99%9F/@24.0915673,120.6897796,17z/data=!3m1!4b1!4m5!3m4!1s0x34693cbe80c5392d:0xfa7e21fe69bbf125!8m2!3d24.0915",
      "address": "台中市大里區中興路一段384號",
      "tel": "(04)24934111",
      "lat": 24.0915673,
      "lon": 120.6897796
    },
    {
      "name": "北大里分行",
      "link": "https://www.google.com.tw/maps/place/412%E5%8F%B0%E4%B8%AD%E5%B8%82%E5%A4%A7%E9%87%8C%E5%8D%80%E6%96%B0%E4%BB%81%E8%B7%AF%E4%BA%8C%E6%AE%B5261%E8%99%9F/@24.1125048,120.6886093,17z/data=!3m1!4b1!4m5!3m4!1s0x34693cdddc080bff:0xbf3c183736491a76!8m2!3d24.1124",
      "address": "台中市大里區新仁路二段261號",
      "tel": "(04)24836699",
      "lat": 24.1125048,
      "lon": 120.6886093
    },
    {
      "name": "烏日分行",
      "link": "https://www.google.com.tw/maps/place/414%E5%8F%B0%E4%B8%AD%E5%B8%82%E7%83%8F%E6%97%A5%E5%8D%80%E4%B8%AD%E5%B1%B1%E8%B7%AF%E4%B8%80%E6%AE%B5598%E8%99%9F/@24.1067254,120.6321585,17z/data=!3m1!4b1!4m5!3m4!1s0x34693c17aab608c5:0xdfc8408c209d56e7!8m2!3d24.1067",
      "address": "台中市烏日區中山路一段598號",
      "tel": "(04)23369911",
      "lat": 24.1067254,
      "lon": 120.6321585
    },
    {
      "name": "豐原分行",
      "link": "https://www.google.com.tw/maps/place/%E5%90%88%E4%BD%9C%E9%87%91%E5%BA%AB%E9%8A%80%E8%A1%8C+%E8%B1%90%E5%8E%9F%E5%88%86%E8%A1%8C/@24.2522849,120.7185953,17z/data=!3m1!4b1!4m5!3m4!1s0x34691a0fa72166df:0xe2f4ccb18014dc02!8m2!3d24.25228!4d120.720784",
      "address": "台中市豐原區中正路102號",
      "tel": "(04)25231122",
      "lat": 24.2522849,
      "lon": 120.7185953
    },
    {
      "name": "南豐原分行",
      "link": "https://www.google.com.tw/maps/place/420%E5%8F%B0%E4%B8%AD%E5%B8%82%E8%B1%90%E5%8E%9F%E5%8D%80%E5%9C%93%E7%92%B0%E5%8D%97%E8%B7%AF222%E8%99%9F/@24.2499406,120.707349,17z/data=!3m1!4b1!4m5!3m4!1s0x346910a9aec612a9:0x10fe7067ee1b3644!8m2!3d24.2499357!4d120.",
      "address": "台中市豐原區圓環南路222號",
      "tel": "(04)25244180",
      "lat": 24.2499406,
      "lon": 120.707349
    },
    {
      "name": "豐中分行",
      "link": "https://www.google.com.tw/maps/place/420%E5%8F%B0%E4%B8%AD%E5%B8%82%E8%B1%90%E5%8E%9F%E5%8D%80%E4%B8%AD%E6%AD%A3%E8%B7%AF351%E8%99%9F/@24.250912,120.7118713,17z/data=!3m1!4b1!4m5!3m4!1s0x34691a07c7a54911:0xb09f2eec44ae6012!8m2!3d24.2509071!4d120.71406",
      "address": "台中市豐原區中正路351號",
      "tel": "(04)25280369",
      "lat": 24.250912,
      "lon": 120.7118713
    },
    {
      "name": "后里分行",
      "link": "https://www.google.com.tw/maps/place/%E5%90%88%E4%BD%9C%E9%87%91%E5%BA%AB%E9%8A%80%E8%A1%8C_%E5%90%8E%E9%87%8C%E5%88%86%E8%A1%8C/@24.3065382,120.7194603,17z/data=!4m5!3m4!1s0x34691aa31de83719:0x200050f3b9909c09!8m2!3d24.3065382!4d120.721649",
      "address": "台中市后里區三豐路三段899號",
      "tel": "(04)25563188",
      "lat": 24.3065382,
      "lon": 120.7194603
    },
    {
      "name": "潭子分行",
      "link": "https://www.google.com.tw/maps/place/427%E5%8F%B0%E4%B8%AD%E5%B8%82%E6%BD%AD%E5%AD%90%E5%8D%80%E4%B8%AD%E5%B1%B1%E8%B7%AF%E4%BA%8C%E6%AE%B5281%E8%99%9F/@24.2106248,120.7029761,17z/data=!3m1!4b1!4m5!3m4!1s0x3469177b48acf8c9:0x98f96c2a41f5762e!8m2!3d24.2106",
      "address": "台中市潭子區中山路二段281號",
      "tel": "(04)25325566",
      "lat": 24.2106248,
      "lon": 120.7029761
    },
    {
      "name": "大雅分行",
      "link": "https://www.google.com.tw/maps/place/428%E5%8F%B0%E4%B8%AD%E5%B8%82%E5%A4%A7%E9%9B%85%E5%8D%80%E9%9B%85%E7%92%B0%E8%B7%AF%E4%BA%8C%E6%AE%B595%E8%99%9F/@24.2264272,120.6505258,17z/data=!3m1!4b1!4m5!3m4!1s0x346916ef13d5b697:0x6abcf747ccbfd76c!8m2!3d24.22642",
      "address": "台中市大雅區雅環路二段95號",
      "tel": "(04)25660199",
      "lat": 24.2264272,
      "lon": 120.6505258
    },
    {
      "name": "神岡分行",
      "link": "https://www.google.com.tw/maps/place/429%E5%8F%B0%E4%B8%AD%E5%B8%82%E7%A5%9E%E5%B2%A1%E5%8D%80%E4%B8%AD%E5%B1%B1%E8%B7%AF799%E8%99%9F/@24.2500565,120.6754189,17z/data=!3m1!4b1!4m5!3m4!1s0x346910cd57945e6d:0xec0ea74e0a1addaa!8m2!3d24.2500516!4d120.6776076",
      "address": "台中市神岡區中山路799之1號",
      "tel": "(04)25621111",
      "lat": 24.2500565,
      "lon": 120.6754189
    },
    {
      "name": "沙鹿分行",
      "link": "https://www.google.com.tw/maps/place/433%E5%8F%B0%E4%B8%AD%E5%B8%82%E6%B2%99%E9%B9%BF%E5%8D%80%E6%B2%99%E7%94%B0%E8%B7%AF106%E8%99%9F/@24.2348435,120.5568272,17z/data=!3m1!4b1!4m5!3m4!1s0x346914e25af81fd3:0x8c9c1bac2b8d77ac!8m2!3d24.2348386!4d120.5590159",
      "address": "台中市沙鹿區沙田路106號",
      "tel": "(04)26622141",
      "lat": 24.2348435,
      "lon": 120.5568272
    },
    {
      "name": "東沙鹿分行",
      "link": "https://www.google.com.tw/maps/place/433%E5%8F%B0%E4%B8%AD%E5%B8%82%E6%B2%99%E9%B9%BF%E5%8D%80%E5%85%89%E8%8F%AF%E8%B7%AF307%E8%99%9F/@24.2411989,120.5625063,17z/data=!3m1!4b1!4m5!3m4!1s0x346914fa8d734d07:0xf8734e158a98d585!8m2!3d24.241194!4d120.564695",
      "address": "台中市沙鹿區光華路307號",
      "tel": "(04)26653311",
      "lat": 24.2411989,
      "lon": 120.5625063
    }
  ],
  "彰化縣": [
    {
      "name": "彰化分行",
      "link": "https://www.google.com.tw/maps/place/500%E5%BD%B0%E5%8C%96%E7%B8%A3%E5%BD%B0%E5%8C%96%E5%B8%82%E6%B0%91%E7%94%9F%E8%B7%AF279%E8%99%9F/@24.0819987,120.5401616,17z/data=!3m1!4b1!4m5!3m4!1s0x34693896d7be412f:0xde96a0354afbde63!8m2!3d24.0819938!4d120.5423503",
      "address": "彰化縣彰化市民生路279號",
      "tel": "(04)7225151",
      "lat": 24.0819987,
      "lon": 120.5401616
    },
    {
      "name": "彰營分行",
      "link": "https://www.google.com.tw/maps/place/500%E5%BD%B0%E5%8C%96%E7%B8%A3%E5%BD%B0%E5%8C%96%E5%B8%82%E6%B0%91%E6%97%8F%E8%B7%AF532%E8%99%9F/@24.078087,120.538749,17z/data=!3m1!4b1!4m5!3m4!1s0x34693890421931a5:0xecb765e580abc22!8m2!3d24.0780821!4d120.5409377",
      "address": "彰化縣彰化市民族路532號",
      "tel": "(04)7229221",
      "lat": 24.078087,
      "lon": 120.538749
    },
    {
      "name": "彰儲分行",
      "link": "https://www.google.com.tw/maps/place/500%E5%BD%B0%E5%8C%96%E7%B8%A3%E5%BD%B0%E5%8C%96%E5%B8%82%E4%B8%AD%E6%AD%A3%E8%B7%AF%E4%B8%80%E6%AE%B5321%E8%99%9F/@24.0827619,120.5430523,17z/data=!3m1!4b1!4m5!3m4!1s0x3469389427ef6731:0x6b14d77363e244bf!8m2!3d24.0827",
      "address": "彰化縣彰化市中正路一段321號",
      "tel": "(04)7240082",
      "lat": 24.0827619,
      "lon": 120.5430523
    },
    {
      "name": "大竹分行",
      "link": "https://www.google.com.tw/maps/place/500%E5%BD%B0%E5%8C%96%E7%B8%A3%E5%BD%B0%E5%8C%96%E5%B8%82%E5%BD%B0%E5%8D%97%E8%B7%AF%E4%BA%8C%E6%AE%B5239%E8%99%9F/@24.0849658,120.5799933,17z/data=!3m1!4b1!4m5!3m4!1s0x346939245c17ee57:0xdf4aa4af873ae261!8m2!3d24.0849",
      "address": "彰化縣彰化市彰南路二段239號",
      "tel": "(04)7373311",
      "lat": 24.0849658,
      "lon": 120.5799933
    },
    {
      "name": "南彰化分行",
      "link": "https://www.google.com.tw/maps/place/500%E5%BD%B0%E5%8C%96%E7%B8%A3%E5%BD%B0%E5%8C%96%E5%B8%82%E6%9B%89%E9%99%BD%E8%B7%AF43%E8%99%9F/@24.0719468,120.5391503,17z/data=!3m1!4b1!4m5!3m4!1s0x3469388f3b8999ef:0x1df962744726cc22!8m2!3d24.0719419!4d120.541339",
      "address": "彰化縣彰化市曉陽路43號",
      "tel": "(04)7254611",
      "lat": 24.0719468,
      "lon": 120.5391503
    },
    {
      "name": "鹿港分行",
      "link": "https://www.google.com.tw/maps/place/505%E5%BD%B0%E5%8C%96%E7%B8%A3%E9%B9%BF%E6%B8%AF%E9%8E%AE%E6%B0%91%E6%97%8F%E8%B7%AF120%E8%99%9F/@24.0552779,120.4335653,17z/data=!3m1!4b1!4m5!3m4!1s0x346945fd5fffd71d:0xf4788f23170c4d49!8m2!3d24.055273!4d120.435754",
      "address": "彰化縣鹿港鎮民族路120號",
      "tel": "(04)7788511",
      "lat": 24.0552779,
      "lon": 120.4335653
    },
    {
      "name": "和美分行",
      "link": "https://www.google.com.tw/maps/place/508%E5%BD%B0%E5%8C%96%E7%B8%A3%E5%92%8C%E7%BE%8E%E9%8E%AE%E9%B9%BF%E5%92%8C%E8%B7%AF%E5%85%AD%E6%AE%B5361%E8%99%9F/@24.1089461,120.4927895,17z/data=!3m1!4b1!4m5!3m4!1s0x346947306b77f6eb:0x508fda52cc2f209a!8m2!3d24.1089",
      "address": "彰化縣和美鎮鹿和路六段361號",
      "tel": "(04)7570123",
      "lat": 24.1089461,
      "lon": 120.4927895
    },
    {
      "name": "伸港分行",
      "link": "https://www.google.com.tw/maps/place/509%E5%BD%B0%E5%8C%96%E7%B8%A3%E4%BC%B8%E6%B8%AF%E9%84%89%E6%96%B0%E8%88%88%E8%B7%AF35%E8%99%9F/@24.1454439,120.4837413,17z/data=!3m1!4b1!4m5!3m4!1s0x346940e11712dc91:0x11027f0481606828!8m2!3d24.145439!4d120.48593",
      "address": "彰化縣伸港鄉新興路35號",
      "tel": "(04)7996922",
      "lat": 24.1454439,
      "lon": 120.4837413
    },
    {
      "name": "員林分行",
      "link": "https://www.google.com.tw/maps/place/510%E5%BD%B0%E5%8C%96%E7%B8%A3%E5%93%A1%E6%9E%97%E5%B8%82%E4%B8%AD%E5%B1%B1%E8%B7%AF%E4%B8%80%E6%AE%B5844%E8%99%9F/@23.9593259,120.5686223,17z/data=!3m1!4b1!4m5!3m4!1s0x346936591ced4ce7:0x7f0b0d22bb24137a!8m2!3d23.9593",
      "address": "彰化縣員林市中山路一段844號",
      "tel": "(04)8322181",
      "lat": 23.9593259,
      "lon": 120.5686223
    },
    {
      "name": "員新分行",
      "link": "https://www.google.com.tw/maps/place/510%E5%BD%B0%E5%8C%96%E7%B8%A3%E5%93%A1%E6%9E%97%E5%B8%82%E4%B8%AD%E5%B1%B1%E8%B7%AF%E4%B8%80%E6%AE%B5733%E8%99%9F/@23.9567399,120.5683453,17z/data=!3m1!4b1!4m5!3m4!1s0x3469365edaf50bf7:0x520c2202ef17f6dd!8m2!3d23.9567",
      "address": "彰化縣員林市中山路一段733號",
      "tel": "(04)8322741",
      "lat": 23.9567399,
      "lon": 120.5683453
    },
    {
      "name": "溪湖分行",
      "link": "https://www.google.com.tw/maps/place/%E5%90%88%E4%BD%9C%E9%87%91%E5%BA%AB%E9%8A%80%E8%A1%8C+%E6%BA%AA%E6%B9%96%E5%88%86%E8%A1%8C/@23.9559797,120.4784802,17z/data=!3m1!4b1!4m5!3m4!1s0x34694978b5addfa9:0xaf96919edad31050!8m2!3d23.9559748!4d120.4806689",
      "address": "彰化縣溪湖鎮西環路56號",
      "tel": "(04)8829121",
      "lat": 23.9559797,
      "lon": 120.4784802
    },
    {
      "name": "北斗分行",
      "link": "https://www.google.com.tw/maps/place/521%E5%BD%B0%E5%8C%96%E7%B8%A3%E5%8C%97%E6%96%97%E9%8E%AE%E4%B8%AD%E6%AD%A3%E8%B7%AF168%E8%99%9F/@23.8742366,120.5198881,17z/data=!3m1!4b1!4m5!3m4!1s0x34694aa3d59eba13:0xc3d7b3618f04bf9d!8m2!3d23.8742317!4d120.5220768",
      "address": "彰化縣北斗鎮中正路168號",
      "tel": "(04)8880181",
      "lat": 23.8742366,
      "lon": 120.5198881
    }
  ],
  "南投縣": [
    {
      "name": "南投分行",
      "link": "https://www.google.com.tw/maps/place/540%E5%8D%97%E6%8A%95%E7%B8%A3%E5%8D%97%E6%8A%95%E5%B8%82%E4%B8%AD%E5%B1%B1%E8%A1%9796%E8%99%9F/@23.9074696,120.6842044,17z/data=!3m1!4b1!4m5!3m4!1s0x3469318af9a2d463:0x769ffca9be3531e7!8m2!3d23.9074647!4d120.6863931",
      "address": "南投縣南投市中山街96號",
      "tel": "(049)2234141",
      "lat": 23.9074696,
      "lon": 120.6842044
    },
    {
      "name": "草屯分行",
      "link": "https://www.google.com.tw/maps/place/542%E5%8D%97%E6%8A%95%E7%B8%A3%E8%8D%89%E5%B1%AF%E9%8E%AE%E4%B8%AD%E6%AD%A3%E8%B7%AF864%E8%99%9F/@23.9842579,120.6841453,17z/data=!3m1!4b1!4m5!3m4!1s0x3469307374da2603:0xc1f6a273e88c8b87!8m2!3d23.984253!4d120.686334",
      "address": "南投縣草屯鎮中正路864號",
      "tel": "(049)2338141",
      "lat": 23.9842579,
      "lon": 120.6841453
    },
    {
      "name": "埔里分行",
      "link": "https://www.google.com.tw/maps/place/545%E5%8D%97%E6%8A%95%E7%B8%A3%E5%9F%94%E9%87%8C%E9%8E%AE%E4%B8%AD%E5%B1%B1%E8%B7%AF%E4%BA%8C%E6%AE%B5299%E8%99%9F/@23.9651085,120.9655715,17z/data=!3m1!4b1!4m5!3m4!1s0x3468d9992656baff:0x24ddffed661ef9c!8m2!3d23.96510",
      "address": "南投縣埔里鎮中山路二段299號",
      "tel": "(049)2986411",
      "lat": 23.9651085,
      "lon": 120.9655715
    },
    {
      "name": "東埔里分行",
      "link": "https://www.google.com.tw/maps/place/545%E5%8D%97%E6%8A%95%E7%B8%A3%E5%9F%94%E9%87%8C%E9%8E%AE%E4%B8%AD%E6%AD%A3%E8%B7%AF320%E8%99%9F/@23.963204,120.9674241,17z/data=!3m1!4b1!4m5!3m4!1s0x3468d99971bdf213:0x16b1bb0fcd8ff2b!8m2!3d23.9631991!4d120.9696128",
      "address": "南投縣埔里鎮中正路320號",
      "tel": "(049)2989160",
      "lat": 23.963204,
      "lon": 120.9674241
    },
    {
      "name": "集集分行",
      "link": "https://www.google.com.tw/maps/place/552%E5%8D%97%E6%8A%95%E7%B8%A3%E9%9B%86%E9%9B%86%E9%8E%AE%E6%B0%91%E7%94%9F%E8%B7%AF176%E8%99%9F/@23.8274783,120.7824436,17z/data=!3m1!4b1!4m5!3m4!1s0x34692c93b295b69f:0xd4c4607e29737b35!8m2!3d23.8274734!4d120.7846323",
      "address": "南投縣集集鎮民生路176號",
      "tel": "(049)2761501",
      "lat": 23.8274783,
      "lon": 120.7824436
    },
    {
      "name": "竹山分行",
      "link": "https://www.google.com.tw/maps/place/557%E5%8D%97%E6%8A%95%E7%B8%A3%E7%AB%B9%E5%B1%B1%E9%8E%AE%E9%9B%86%E5%B1%B1%E8%B7%AF%E4%B8%89%E6%AE%B5839%E8%99%9F/@23.7576157,120.6821467,17z/data=!3m1!4b1!4m5!3m4!1s0x346ecdbf3937498b:0x887b68705660e55e!8m2!3d23.7576",
      "address": "南投縣竹山鎮集山路三段839號",
      "tel": "(049)2652721",
      "lat": 23.7576157,
      "lon": 120.6821467
    }
  ],
  "雲林縣": [
    {
      "name": "虎尾分行",
      "link": "https://www.google.com.tw/maps/place/632%E9%9B%B2%E6%9E%97%E7%B8%A3%E8%99%8E%E5%B0%BE%E9%8E%AE%E4%B8%AD%E6%AD%A3%E8%B7%AF15%E8%99%9F/@23.7095843,120.4349207,17z/data=!3m1!4b1!4m5!3m4!1s0x346eb7533e4a9f93:0xa6e239377d1d2e50!8m2!3d23.7095794!4d120.4371094",
      "address": "雲林縣虎尾鎮中正路15號",
      "tel": "(05)6313821",
      "lat": 23.7095843,
      "lon": 120.4349207
    },
    {
      "name": "斗六分行",
      "link": "https://www.google.com.tw/maps/place/640%E9%9B%B2%E6%9E%97%E7%B8%A3%E6%96%97%E5%85%AD%E5%B8%82%E5%A4%A7%E5%90%8C%E8%B7%AF3%E8%99%9F/@23.7113416,120.5393445,17z/data=!3m1!4b1!4m5!3m4!1s0x346ec83a91c53b07:0xc4907c0d37af2525!8m2!3d23.7113367!4d120.5415332",
      "address": "雲林縣斗六市大同路3號",
      "tel": "(05)5323981",
      "lat": 23.7113416,
      "lon": 120.5393445
    },
    {
      "name": "雲林分行",
      "link": "https://www.google.com.tw/maps/place/640%E9%9B%B2%E6%9E%97%E7%B8%A3%E6%96%97%E5%85%AD%E5%B8%82%E6%B0%91%E7%94%9F%E8%B7%AF223%E8%99%9F/@23.7121068,120.5402379,17z/data=!3m1!4b1!4m5!3m4!1s0x346ec83080385365:0xb5f047ab2e7c7f31!8m2!3d23.7121019!4d120.5424266",
      "address": "雲林縣斗六市民生路223號",
      "tel": "(05)5324811",
      "lat": 23.7121068,
      "lon": 120.5402379
    },
    {
      "name": "林內分行",
      "link": "https://www.google.com.tw/maps/place/643%E9%9B%B2%E6%9E%97%E7%B8%A3%E6%9E%97%E5%85%A7%E9%84%89%E4%B8%AD%E8%A5%BF%E8%B7%AF21%E8%99%9F/@23.7579029,120.6115133,17z/data=!3m1!4b1!4m5!3m4!1s0x346ecbfbd3aabeff:0xfdbcb6360f5cb769!8m2!3d23.757898!4d120.613702",
      "address": "雲林縣林內鄉中西路21號",
      "tel": "(05)5897811",
      "lat": 23.7579029,
      "lon": 120.6115133
    },
    {
      "name": "北港分行",
      "link": "https://www.google.com.tw/maps/place/%E5%90%88%E4%BD%9C%E9%87%91%E5%BA%AB%E9%8A%80%E8%A1%8C+%E5%8C%97%E6%B8%AF%E5%88%86%E8%A1%8C/@23.568548,120.3002691,17z/data=!3m1!4b1!4m5!3m4!1s0x346ea2869a041851:0xa022db567ba37c45!8m2!3d23.5685431!4d120.3024578",
      "address": "雲林縣北港鎮義民路53號",
      "tel": "(05)7836136",
      "lat": 23.568548,
      "lon": 120.3002691
    }
  ],
  "嘉義市": [
    {
      "name": "嘉義分行",
      "link": "https://www.google.com.tw/maps/place/600%E5%98%89%E7%BE%A9%E5%B8%82%E8%A5%BF%E5%8D%80%E5%9C%8B%E8%8F%AF%E8%A1%97279%E8%99%9F/@23.4805488,120.4461217,17z/data=!3m1!4b1!4m5!3m4!1s0x346e9431f61a8f49:0x4c21720961f6d7c6!8m2!3d23.4805488!4d120.4483104",
      "address": "嘉義市西區國華街279號",
      "tel": "(05)2224571",
      "lat": 23.4805488,
      "lon": 120.4461217
    },
    {
      "name": "南嘉義分行",
      "link": "https://www.google.com.tw/maps/place/600%E5%98%89%E7%BE%A9%E5%B8%82%E8%A5%BF%E5%8D%80%E6%B0%91%E6%97%8F%E8%B7%AF746%E8%99%9F/@23.4754006,120.4399307,17z/data=!3m1!4b1!4m5!3m4!1s0x346e9425e64db363:0x397fbf8034683432!8m2!3d23.4754006!4d120.4421194",
      "address": "嘉義市西區民族路746號",
      "tel": "(05)2286311",
      "lat": 23.4754006,
      "lon": 120.4399307
    },
    {
      "name": "北嘉義分行",
      "link": "https://www.google.com.tw/maps/place/600%E5%98%89%E7%BE%A9%E5%B8%82%E8%A5%BF%E5%8D%80%E5%BE%B7%E5%AE%89%E8%B7%AF3%E8%99%9F/@23.4838979,120.4309091,17z/data=!3m1!4b1!4m5!3m4!1s0x346e968187adcf8f:0xa638c33f37d5ecd0!8m2!3d23.4838979!4d120.4330978",
      "address": "嘉義市西區德安路3號",
      "tel": "(05)2815500",
      "lat": 23.4838979,
      "lon": 120.4309091
    },
    {
      "name": "東嘉義分行",
      "link": "https://www.google.com.tw/maps/place/600%E5%98%89%E7%BE%A9%E5%B8%82%E8%A5%BF%E5%8D%80%E6%B0%91%E6%AC%8A%E8%B7%AF425%E8%99%9F/@23.4819042,120.4445787,17z/data=!3m1!4b1!4m5!3m4!1s0x346e942df17c01e3:0xde606999ba876db!8m2!3d23.4819042!4d120.4467674",
      "address": "嘉義市西區民權路425號",
      "tel": "(05)2225281",
      "lat": 23.4819042,
      "lon": 120.4445787
    }
  ],
  "嘉義縣": [
    {
      "name": "朴子分行",
      "link": "https://www.google.com.tw/maps/place/613%E5%98%89%E7%BE%A9%E7%B8%A3%E6%9C%B4%E5%AD%90%E5%B8%82%E6%B5%B7%E9%80%9A%E8%B7%AF62%E8%99%9F/@23.4638251,120.2404735,17z/data=!3m1!4b1!4m5!3m4!1s0x346e9c731dc3ab57:0x8f073ee5ad82efd!8m2!3d23.4638251!4d120.2426622",
      "address": "嘉義縣朴子市海通路62號",
      "tel": "(05)3794171",
      "lat": 23.4638251,
      "lon": 120.2404735
    },
    {
      "name": "北朴子分行",
      "link": "https://www.google.com.tw/maps/place/613%E5%98%89%E7%BE%A9%E7%B8%A3%E6%9C%B4%E5%AD%90%E5%B8%82%E6%96%87%E5%8C%96%E5%8C%97%E8%B7%AF3%E8%99%9F/@23.4639758,120.2390459,17z/data=!3m1!4b1!4m5!3m4!1s0x346e9c72ed34f117:0x9b1d225ea25e8676!8m2!3d23.4639758!4d120.2",
      "address": "嘉義縣朴子市文化北路3號",
      "tel": "(05)3790808",
      "lat": 23.4639758,
      "lon": 120.2390459
    }
  ],
  "台南市": [
    {
      "name": "台南分行",
      "link": "https://www.google.com.tw/maps/place/704%E5%8F%B0%E5%8D%97%E5%B8%82%E5%8C%97%E5%8D%80%E6%88%90%E5%8A%9F%E8%B7%AF48%E8%99%9F/@22.9980128,120.2077274,3a,75y,9.6h,90t/data=!3m7!1e1!3m5!1sNB_xS62CUoX1X_uX3bY5PQ!2e0!6s%2F%2Fgeo2.ggpht.com%2Fcbk%3Fpanoid%3DNB_x",
      "address": "台南市北區成功路48號",
      "tel": "(06)2232101",
      "lat": 22.9980128,
      "lon": 120.2077274
    },
    {
      "name": "成功分行",
      "link": "https://www.google.com.tw/maps/place/700%E5%8F%B0%E5%8D%97%E5%B8%82%E4%B8%AD%E8%A5%BF%E5%8D%80%E5%8C%97%E9%96%80%E8%B7%AF%E4%B8%80%E6%AE%B597%E8%99%9F/@22.9917384,120.2115797,3a,75y,315.54h,90t/data=!3m7!1e1!3m5!1s6QbcS8pJHgMllvr6eYdV8g!2e0!6s%2F%2Fgeo3.g",
      "address": "台南市中西區北門路一段97號",
      "tel": "(06)2269161",
      "lat": 22.9917384,
      "lon": 120.2115797
    },
    {
      "name": "南興分行",
      "link": "https://www.google.com.tw/maps/place/700%E5%8F%B0%E5%8D%97%E5%B8%82%E4%B8%AD%E8%A5%BF%E5%8D%80%E6%B0%91%E7%94%9F%E8%B7%AF%E4%BA%8C%E6%AE%B572%E8%99%9F/@22.9951007,120.1972112,3a,15y,41.4h,90.39t/data=!3m7!1e1!3m5!1sAUsKZJhvExAn_hN9GTQ5Pg!2e0!6s%2F%2Fgeo3.",
      "address": "台南市中西區民生路二段72號",
      "tel": "(06)2221291",
      "lat": 22.9951007,
      "lon": 120.1972112
    },
    {
      "name": "東台南分行",
      "link": "https://www.google.com.tw/maps/place/701%E5%8F%B0%E5%8D%97%E5%B8%82%E6%9D%B1%E5%8D%80%E4%B8%AD%E8%8F%AF%E6%9D%B1%E8%B7%AF%E4%BA%8C%E6%AE%B5197%E8%99%9F/@22.984435,120.2323682,3a,75y,121.84h,90t/data=!3m7!1e1!3m5!1sWW-7-cxsCc7ianIfxD-wOA!2e0!6s%2F%2Fgeo0.g",
      "address": "台南市東區中華東路二段197號",
      "tel": "(06)2882211",
      "lat": 22.984435,
      "lon": 120.2323682
    },
    {
      "name": "府城分行",
      "link": "https://www.google.com.tw/maps/place/702%E5%8F%B0%E5%8D%97%E5%B8%82%E5%8D%97%E5%8D%80%E5%81%A5%E5%BA%B7%E8%B7%AF%E4%BA%8C%E6%AE%B5380%E8%99%9F/@22.982307,120.1849983,17z/data=!3m1!4b1!4m5!3m4!1s0x346e75df48cc05d3:0xbea2d8d1c6733956!8m2!3d22.982307!4d120.1",
      "address": "台南市南區健康路二段380號",
      "tel": "(06)2910896",
      "lat": 22.982307,
      "lon": 120.1849983
    },
    {
      "name": "成大分行",
      "link": "https://www.google.com.tw/maps/place/704%E5%8F%B0%E5%8D%97%E5%B8%82%E5%8C%97%E5%8D%80%E5%8B%9D%E5%88%A9%E8%B7%AF138%E8%99%9F/@23.0022319,120.2186663,3a,75y,98.36h,90t/data=!3m7!1e1!3m5!1ssFHXNJSC1_CuhtgX6oyJDw!2e0!6s%2F%2Fgeo3.ggpht.com%2Fcbk%3Fpanoid%3Ds",
      "address": "台南市北區勝利路138號",
      "tel": "(06)3028001",
      "lat": 23.0022319,
      "lon": 120.2186663
    },
    {
      "name": "北台南分行",
      "link": "https://www.google.com.tw/maps/place/704%E5%8F%B0%E5%8D%97%E5%B8%82%E5%8C%97%E5%8D%80%E8%A5%BF%E9%96%80%E8%B7%AF%E4%B8%89%E6%AE%B5159%E8%99%9F/@23.0036938,120.2042017,3a,75y,322.87h,97.35t/data=!3m7!1e1!3m5!1sJPO99IquCDhTWwEtKzsExw!2e0!6s%2F%2Fgeo1.ggpht.",
      "address": "台南市北區西門路三段159號",
      "tel": "(06)2209211",
      "lat": 23.0036938,
      "lon": 120.2042017
    },
    {
      "name": "赤崁分行",
      "link": "https://www.google.com.tw/maps/place/704%E5%8F%B0%E5%8D%97%E5%B8%82%E5%8C%97%E5%8D%80%E6%88%90%E5%8A%9F%E8%B7%AF204%E8%99%9F/@22.9989787,120.2035252,3a,75y,355.78h,90t/data=!3m7!1e1!3m5!1sUUHuYYJE_4_errtRPse1rg!2e0!6s%2F%2Fgeo0.ggpht.com%2Fcbk%3Fpanoid%3D",
      "address": "台南市北區成功路204號",
      "tel": "(06)2201302",
      "lat": 22.9989787,
      "lon": 120.2035252
    },
    {
      "name": "開元分行",
      "link": "https://www.google.com.tw/maps/place/704%E5%8F%B0%E5%8D%97%E5%B8%82%E5%8C%97%E5%8D%80%E9%96%8B%E5%85%83%E8%B7%AF147%E8%99%9F/@23.006806,120.2187198,3a,75y,322.32h,90t/data=!3m7!1e1!3m5!1svoBT47FNMYall1VfJUa23g!2e0!6s%2F%2Fgeo3.ggpht.com%2Fcbk%3Fpanoid%3Dv",
      "address": "台南市北區開元路147號",
      "tel": "(06)2753345",
      "lat": 23.006806,
      "lon": 120.2187198
    },
    {
      "name": "永康分行",
      "link": "https://www.google.com.tw/maps/place/710%E5%8F%B0%E5%8D%97%E5%B8%82%E6%B0%B8%E5%BA%B7%E5%8D%80%E4%B8%AD%E6%AD%A3%E5%8D%97%E8%B7%AF328%E8%99%9F/@23.0318858,120.2272221,3a,75y,132.12h,93.98t/data=!3m6!1e1!3m4!1srcdl1sTJ1aMr-iVCJJZJtg!2e0!7i13312!8i6656!4m5!",
      "address": "台南市永康區中正南路328號",
      "tel": "(06)2533533",
      "lat": 23.0318858,
      "lon": 120.2272221
    },
    {
      "name": "南永康分行",
      "link": "https://www.google.com.tw/maps/place/710%E5%8F%B0%E5%8D%97%E5%B8%82%E6%B0%B8%E5%BA%B7%E5%8D%80%E4%B8%AD%E8%8F%AF%E8%B7%AF202-16%E8%99%9F/@23.0048171,120.2354722,3a,75y,102.29h,94.41t/data=!3m7!1e1!3m5!1szJKXZbkqOyH68GJp1O_Lrw!2e0!6s%2F%2Fgeo1.ggpht.com%2F",
      "address": "台南市永康區中華路202號",
      "tel": "(06)3121916",
      "lat": 23.0048171,
      "lon": 120.2354722
    },
    {
      "name": "仁德分行",
      "link": "https://www.google.com.tw/maps/place/717%E5%8F%B0%E5%8D%97%E5%B8%82%E4%BB%81%E5%BE%B7%E5%8D%80%E4%B8%AD%E6%AD%A3%E8%B7%AF%E4%B8%89%E6%AE%B54%E8%99%9F/@22.9720067,120.2518014,3a,75y,138.81h,92.4t/data=!3m8!1e1!3m6!1se_PEko8Do9z_2uIeYllLew!2e0!3e11!6s%2F%2F",
      "address": "台南市仁德區中正路三段4號",
      "tel": "(06)2794616",
      "lat": 22.9720067,
      "lon": 120.2518014
    },
    {
      "name": "佳里分行",
      "link": "https://www.google.com.tw/maps/place/722%E5%8F%B0%E5%8D%97%E5%B8%82%E4%BD%B3%E9%87%8C%E5%8D%80%E5%92%8C%E5%B9%B3%E8%A1%9783%E8%99%9F/@23.1622146,120.1758035,17z/data=!3m1!4b1!4m5!3m4!1s0x346e7f4bdf4ee073:0x4e2471568ef5a8ea!8m2!3d23.1622146!4d120.1779922",
      "address": "台南市佳里區和平街83號",
      "tel": "(06)7223131",
      "lat": 23.1622146,
      "lon": 120.1758035
    },
    {
      "name": "新營分行",
      "link": "https://www.google.com.tw/maps/place/730%E5%8F%B0%E5%8D%97%E5%B8%82%E6%96%B0%E7%87%9F%E5%8D%80%E4%B8%AD%E5%B1%B1%E8%B7%AF115%E8%99%9F/@23.3049975,120.3163004,17z/data=!4m5!3m4!1s0x346e85ddd9c893a5:0xefb7d0d0c78754c6!8m2!3d23.3049975!4d120.3184891",
      "address": "台南市新營區中山路115號",
      "tel": "(06)6324121",
      "lat": 23.3049975,
      "lon": 120.3163004
    },
    {
      "name": "北新營分行",
      "link": "https://www.google.com.tw/maps/place/730%E5%8F%B0%E5%8D%97%E5%B8%82%E6%96%B0%E7%87%9F%E5%8D%80%E6%B0%91%E6%B2%BB%E8%B7%AF360%E8%99%9F/@23.305768,120.3032674,3a,75y,269.63h,90t/data=!3m7!1e1!3m5!1sInavhoIJ_GmJ4oxRoHFnpA!2e0!6s%2F%2Fgeo2.ggpht.com%2Fcbk%3Fp",
      "address": "台南市新營區民治路360號",
      "tel": "(06)6562718",
      "lat": 23.305768,
      "lon": 120.3032674
    }
  ],
  "高雄市": [
    {
      "name": "新興分行",
      "link": "https://www.google.com.tw/maps/place/800%E9%AB%98%E9%9B%84%E5%B8%82%E6%96%B0%E8%88%88%E5%8D%80%E4%B8%83%E8%B3%A2%E4%BA%8C%E8%B7%AF110%E8%99%9F/@22.634148,120.2958193,17z/data=!3m1!4b1!4m5!3m4!1s0x346e048a72c4b023:0x2307b629128ba055!8m2!3d22.634148!4d120.2",
      "address": "高雄市新興區七賢二路110號",
      "tel": "(07)2887121",
      "lat": 22.634148,
      "lon": 120.2958193
    },
    {
      "name": "苓雅分行",
      "link": "https://www.google.com.tw/maps/place/800%E9%AB%98%E9%9B%84%E5%B8%82%E6%96%B0%E8%88%88%E5%8D%80%E9%9D%92%E5%B9%B4%E4%B8%80%E8%B7%AF394%E8%99%9F/@22.6208213,120.3020804,17z/data=!3m1!4b1!4m5!3m4!1s0x346e0484098876ed:0xa2eba419c3fd2e13!8m2!3d22.6208213!4d120",
      "address": "高雄市新興區青年一路394號",
      "tel": "(07)2918151",
      "lat": 22.6208213,
      "lon": 120.3020804
    },
    {
      "name": "東高雄分行",
      "link": "https://www.google.com.tw/maps/place/800%E9%AB%98%E9%9B%84%E5%B8%82%E6%96%B0%E8%88%88%E5%8D%80%E6%B0%91%E7%94%9F%E4%B8%80%E8%B7%AF176%E8%99%9F/@22.627919,120.3070483,17z/data=!3m1!4b1!4m5!3m4!1s0x346e0491d4612935:0x86945a52803fe9e3!8m2!3d22.627919!4d120.3",
      "address": "高雄市新興區民生一路176號",
      "tel": "(07)2265666",
      "lat": 22.627919,
      "lon": 120.3070483
    },
    {
      "name": "光華分行",
      "link": "https://www.google.com.tw/maps/place/802%E9%AB%98%E9%9B%84%E5%B8%82%E8%8B%93%E9%9B%85%E5%8D%80%E5%85%89%E8%8F%AF%E4%B8%80%E8%B7%AF148-82%E8%99%9F/@22.6249643,120.3152472,3a,75y,53.3h,90t/data=!3m7!1e1!3m5!1sqTqti-jqt14ig9yD0sGdQQ!2e0!6s%2F%2Fgeo0.ggpht.co",
      "address": "高雄市苓雅區光華一路148之82號",
      "tel": "(07)2223020",
      "lat": 22.6249643,
      "lon": 120.3152472
    },
    {
      "name": "七賢分行",
      "link": "https://www.google.com.tw/maps/place/800%E9%AB%98%E9%9B%84%E5%B8%82%E6%96%B0%E8%88%88%E5%8D%80%E4%B8%83%E8%B3%A2%E4%B8%80%E8%B7%AF216%E8%99%9F/@22.6341427,120.3086625,17z/data=!3m1!4b1!4m5!3m4!1s0x346e0492c286990d:0x797a7d77b6950c1a!8m2!3d22.6341427!4d120",
      "address": "高雄市新興區七賢一路216號",
      "tel": "(07)2365503",
      "lat": 22.6341427,
      "lon": 120.3086625
    },
    {
      "name": "北高雄分行",
      "link": "https://www.google.com.tw/maps/place/801%E9%AB%98%E9%9B%84%E5%B8%82%E5%89%8D%E9%87%91%E5%8D%80%E4%B8%AD%E8%8F%AF%E4%B8%89%E8%B7%AF232-1%E8%99%9F/@22.6339376,120.292079,17z/data=!3m1!4b1!4m5!3m4!1s0x346e04617915f059:0x2b612cd455e8b4a8!8m2!3d22.6339376!4d12",
      "address": "高雄市前金區中華三路232號",
      "tel": "(07)2863000",
      "lat": 22.6339376,
      "lon": 120.292079
    },
    {
      "name": "港都分行",
      "link": "https://www.google.com.tw/maps/place/801%E9%AB%98%E9%9B%84%E5%B8%82%E5%89%8D%E9%87%91%E5%8D%80%E4%B8%AD%E6%AD%A3%E5%9B%9B%E8%B7%AF230%E8%99%9F/@22.628572,120.2906923,17z/data=!3m1!4b1!4m5!3m4!1s0x346e04634b04d9ad:0xdc1bf294319c73cd!8m2!3d22.628572!4d120.2",
      "address": "高雄市前金區中正四路230號",
      "tel": "(07)2914131",
      "lat": 22.628572,
      "lon": 120.2906923
    },
    {
      "name": "南高雄分行",
      "link": "https://www.google.com.tw/maps/place/802%E9%AB%98%E9%9B%84%E5%B8%82%E8%8B%93%E9%9B%85%E5%8D%80%E4%B8%89%E5%A4%9A%E4%B8%89%E8%B7%AF94%E8%99%9F/@22.616426,120.3092383,17z/data=!3m1!4b1!4m5!3m4!1s0x346e049d023ac253:0x23e6c5be1d85080b!8m2!3d22.616426!4d120.31",
      "address": "高雄市苓雅區三多三路94號",
      "tel": "(07)3348141",
      "lat": 22.616426,
      "lon": 120.3092383
    },
    {
      "name": "大順分行",
      "link": "https://www.google.com.tw/maps/place/802%E9%AB%98%E9%9B%84%E5%B8%82%E8%8B%93%E9%9B%85%E5%8D%80%E5%A4%A7%E9%A0%86%E4%B8%89%E8%B7%AF20-3%E8%99%9F/@22.6304365,120.3216941,17z/data=!3m1!4b1!4m5!3m4!1s0x346e04bf04649729:0x269460909c7f18c!8m2!3d22.6304365!4d120",
      "address": "高雄市苓雅區大順三路20號",
      "tel": "(07)7131886",
      "lat": 22.6304365,
      "lon": 120.3216941
    },
    {
      "name": "前金分行",
      "link": "https://www.google.com.tw/maps/place/802%E9%AB%98%E9%9B%84%E5%B8%82%E8%8B%93%E9%9B%85%E5%8D%80%E4%B8%AD%E8%8F%AF%E5%9B%9B%E8%B7%AF45%E8%99%9F/@22.6133159,120.2996646,17z/data=!3m1!4b1!4m5!3m4!1s0x346e037e603805e1:0xd9b33fd836785df6!8m2!3d22.6133159!4d120.",
      "address": "高雄市苓雅區中華四路45號",
      "tel": "(07)3363966",
      "lat": 22.6133159,
      "lon": 120.2996646
    },
    {
      "name": "高雄分行",
      "link": "https://www.google.com.tw/maps/place/803%E9%AB%98%E9%9B%84%E5%B8%82%E9%B9%BD%E5%9F%95%E5%8D%80%E5%A4%A7%E5%8B%87%E8%B7%AF97%E8%99%9F/@22.6247608,120.2821061,17z/data=!3m1!4b1!4m5!3m4!1s0x346e04773539c363:0xce1b555a46bb2b08!8m2!3d22.6247608!4d120.2842948",
      "address": "高雄市鹽埕區大勇路97號",
      "tel": "(07)5514221",
      "lat": 22.6247608,
      "lon": 120.2821061
    },
    {
      "name": "鼓山分行",
      "link": "https://www.google.com.tw/maps/place/804%E9%AB%98%E9%9B%84%E5%B8%82%E9%BC%93%E5%B1%B1%E5%8D%80%E4%B8%AD%E8%8F%AF%E4%B8%80%E8%B7%AF352%E8%99%9F/@22.661341,120.2898433,17z/data=!3m1!4b1!4m5!3m4!1s0x346e05ab50d417af:0xb8dc022e6dff42f7!8m2!3d22.661341!4d120.2",
      "address": "高雄市鼓山區中華一路352號",
      "tel": "(07)5223311",
      "lat": 22.661341,
      "lon": 120.2898433
    },
    {
      "name": "前鎮分行",
      "link": "https://www.google.com.tw/maps/place/806%E9%AB%98%E9%9B%84%E5%B8%82%E5%89%8D%E9%8E%AE%E5%8D%80%E6%BC%81%E6%B8%AF%E8%B7%AF8%E8%99%9F/@22.5790093,120.3170907,17z/data=!3m1!4b1!4m5!3m4!1s0x346e031815cbcb1b:0x4f2d867d52de8808!8m2!3d22.5790093!4d120.3192794",
      "address": "高雄市前鎮區漁港路8號",
      "tel": "(07)8416491",
      "lat": 22.5790093,
      "lon": 120.3170907
    },
    {
      "name": "憲德分行",
      "link": "https://www.google.com.tw/maps/place/806%E9%AB%98%E9%9B%84%E5%B8%82%E5%89%8D%E9%8E%AE%E5%8D%80%E5%85%AC%E6%AD%A3%E8%B7%AF182%E8%99%9F/@22.6062723,120.328719,17z/data=!3m1!4b1!4m5!3m4!1s0x346e0359c42b73cb:0xd2cbd3750c3ebf45!8m2!3d22.6062723!4d120.3309077",
      "address": "高雄市前鎮區公正路182號",
      "tel": "(07)7112046",
      "lat": 22.6062723,
      "lon": 120.328719
    },
    {
      "name": "一心路分行",
      "link": "https://www.google.com.tw/maps/place/806%E9%AB%98%E9%9B%84%E5%B8%82%E5%89%8D%E9%8E%AE%E5%8D%80%E4%B8%80%E5%BF%83%E4%BA%8C%E8%B7%AF119%E8%99%9F/@22.612041,120.3062483,17z/data=!3m1!4b1!4m5!3m4!1s0x346e037d2918d46d:0xb9bc068b6609f256!8m2!3d22.612041!4d120.3",
      "address": "高雄市前鎮區一心二路119號",
      "tel": "(07)3332020",
      "lat": 22.612041,
      "lon": 120.3062483
    },
    {
      "name": "高雄科技園區分行",
      "link": "https://www.google.com.tw/maps/place/%E5%90%88%E4%BD%9C%E9%87%91%E5%BA%AB%E9%8A%80%E8%A1%8C+%E9%AB%98%E9%9B%84%E7%A7%91%E6%8A%80%E5%9C%92%E5%8D%80%E5%88%86%E8%A1%8C/@22.604871,120.2986181,17z/data=!3m1!4b1!4m5!3m4!1s0x346e03777a38fb75:0xcd24af999634fb8e!8",
      "address": "高雄市前鎮區成功二路11之2號",
      "tel": "(07)5351888",
      "lat": 22.604871,
      "lon": 120.2986181
    },
    {
      "name": "三民分行",
      "link": "https://www.google.com.tw/maps/place/807%E9%AB%98%E9%9B%84%E5%B8%82%E4%B8%89%E6%B0%91%E5%8D%80%E5%8D%9A%E6%84%9B%E4%B8%80%E8%B7%AF30%E8%99%9F/@22.642206,120.3010323,17z/data=!3m1!4b1!4m5!3m4!1s0x346e04f3ff7a32af:0x1d9d36c347aa12f9!8m2!3d22.642206!4d120.30",
      "address": "高雄市三民區博愛一路30號",
      "tel": "(07)3127191",
      "lat": 22.642206,
      "lon": 120.3010323
    },
    {
      "name": "灣內分行",
      "link": "https://www.google.com.tw/maps/place/807%E9%AB%98%E9%9B%84%E5%B8%82%E4%B8%89%E6%B0%91%E5%8D%80%E5%BB%BA%E5%B7%A5%E8%B7%AF675%E8%99%9F/@22.647944,120.3156513,17z/data=!3m1!4b1!4m5!3m4!1s0x346e04e7030f0053:0x3eb9b1b7e8984ee0!8m2!3d22.647944!4d120.31784",
      "address": "高雄市三民區建工路675號",
      "tel": "(07)3861591",
      "lat": 22.647944,
      "lon": 120.3156513
    },
    {
      "name": "十全分行",
      "link": "https://www.google.com.tw/maps/place/807%E9%AB%98%E9%9B%84%E5%B8%82%E4%B8%89%E6%B0%91%E5%8D%80%E5%8D%9A%E6%84%9B%E4%B8%80%E8%B7%AF189%E8%99%9F/@22.646498,120.3006073,17z/data=!3m1!4b1!4m5!3m4!1s0x346e04f73603b039:0x840f47bb271c57f!8m2!3d22.646498!4d120.30",
      "address": "高雄市三民區博愛一路189號",
      "tel": "(07)3230611",
      "lat": 22.646498,
      "lon": 120.3006073
    },
    {
      "name": "九如分行",
      "link": "https://www.google.com.tw/maps/place/807%E9%AB%98%E9%9B%84%E5%B8%82%E4%B8%89%E6%B0%91%E5%8D%80%E8%A6%BA%E6%B0%91%E8%B7%AF581%E8%99%9F/@22.6409975,120.3290135,3a,75y,176.28h,90t/data=!3m7!1e1!3m5!1sz40Vn5MmbfsJqJ2MID5JjA!2e0!6s%2F%2Fgeo0.ggpht.com%2Fcbk%3F",
      "address": "高雄市三民區覺民路581號",
      "tel": "(07)3805001",
      "lat": 22.6409975,
      "lon": 120.3290135
    },
    {
      "name": "楠梓分行",
      "link": "https://www.google.com.tw/maps/place/811%E9%AB%98%E9%9B%84%E5%B8%82%E6%A5%A0%E6%A2%93%E5%8D%80%E5%BE%8C%E6%98%8C%E8%B7%AF1111%E8%99%9F/@22.717762,120.2898312,17z/data=!3m1!4b1!4m5!3m4!1s0x346e0f76d400f7bb:0x20e74f64e6bfa0cc!8m2!3d22.717762!4d120.2920199",
      "address": "高雄市楠梓區後昌路1111號",
      "tel": "(07)3625678",
      "lat": 22.717762,
      "lon": 120.2898312
    },
    {
      "name": "小港分行",
      "link": "https://www.google.com.tw/maps/place/812%E9%AB%98%E9%9B%84%E5%B8%82%E5%B0%8F%E6%B8%AF%E5%8D%80%E5%AE%8F%E5%B9%B3%E8%B7%AF526%E8%99%9F/@22.5698352,120.3550472,3a,75y,3.23h,90t/data=!3m7!1e1!3m5!1sNLlRcnJknUfPv_f3fWbujA!2e0!6s%2F%2Fgeo1.ggpht.com%2Fcbk%3Fpa",
      "address": "高雄市小港區宏平路526號",
      "tel": "(07)8062289",
      "lat": 22.5698352,
      "lon": 120.3550472
    },
    {
      "name": "左營分行",
      "link": "https://www.google.com.tw/maps/place/813%E9%AB%98%E9%9B%84%E5%B8%82%E5%B7%A6%E7%87%9F%E5%8D%80%E5%8D%9A%E6%84%9B%E4%BA%8C%E8%B7%AF450%E8%99%9F/@22.6675204,120.3015386,17z/data=!3m1!4b1!4m5!3m4!1s0x346e0505dc61d5d9:0xd1bdb9b5c78ca60a!8m2!3d22.6675204!4d120",
      "address": "高雄市左營區博愛二路450號",
      "tel": "(07)5562226",
      "lat": 22.6675204,
      "lon": 120.3015386
    },
    {
      "name": "大社分行",
      "link": "https://www.google.com.tw/maps/place/815%E9%AB%98%E9%9B%84%E5%B8%82%E5%A4%A7%E7%A4%BE%E5%8D%80%E7%BF%A0%E5%B1%8F%E8%B7%AF177%E8%99%9F/@22.7309837,120.3510049,3a,75y,251.09h,94.25t/data=!3m7!1e1!3m5!1sEw1NgtAi_O1wvKVh2p3uSQ!2e0!6s%2F%2Fgeo2.ggpht.com%2Fcbk",
      "address": "高雄市大社區翠屏路177之1號",
      "tel": "(07)3582121",
      "lat": 22.7309837,
      "lon": 120.3510049
    },
    {
      "name": "岡山分行",
      "link": "https://www.google.com.tw/maps/place/%E5%90%88%E4%BD%9C%E9%87%91%E5%BA%AB%E9%8A%80%E8%A1%8C+%E5%B2%A1%E5%B1%B1%E5%88%86%E8%A1%8C/@22.7920054,120.2936491,17z/data=!3m1!4b1!4m5!3m4!1s0x346e0c2ad06830b1:0x9531b29cd8a68ab0!8m2!3d22.7920054!4d120.2958378",
      "address": "高雄市岡山區校前路2號",
      "tel": "(07)6216161",
      "lat": 22.7920054,
      "lon": 120.2936491
    },
    {
      "name": "北岡山分行",
      "link": "https://www.google.com.tw/maps/place/820%E9%AB%98%E9%9B%84%E5%B8%82%E5%B2%A1%E5%B1%B1%E5%8D%80%E4%B8%AD%E5%B1%B1%E5%8C%97%E8%B7%AF12%E8%99%9F/@22.7934161,120.2989975,3a,37.5y,97.44h,90t/data=!3m7!1e1!3m5!1s4Vkoz9cHtpdDeJ9Ma8UPVA!2e0!6s%2F%2Fgeo3.ggpht.com",
      "address": "高雄市岡山區中山北路12號",
      "tel": "(07)6222871",
      "lat": 22.7934161,
      "lon": 120.2989975
    },
    {
      "name": "路竹分行",
      "link": "https://www.google.com.tw/maps/place/821%E9%AB%98%E9%9B%84%E5%B8%82%E8%B7%AF%E7%AB%B9%E5%8D%80%E5%9C%8B%E6%98%8C%E8%B7%AF68%E8%99%9F/@22.8544444,120.2574277,17z/data=!3m1!4b1!4m5!3m4!1s0x346e0c9bcc088b69:0x567dd26eb95273d6!8m2!3d22.8544444!4d120.2596164",
      "address": "高雄市路竹區國昌路68號",
      "tel": "(07)6966122",
      "lat": 22.8544444,
      "lon": 120.2574277
    },
    {
      "name": "鳳山分行",
      "link": "https://www.google.com.tw/maps/place/830%E9%AB%98%E9%9B%84%E5%B8%82%E9%B3%B3%E5%B1%B1%E5%8D%80%E4%B8%AD%E6%AD%A3%E8%B7%AF95%E8%99%9F/@22.6264685,120.357588,17z/data=!3m1!4b1!4m5!3m4!1s0x346e1b38b9256b41:0xb42aa2a0742df12c!8m2!3d22.6264685!4d120.3597767",
      "address": "高雄市鳳山區中正路95號",
      "tel": "(07)7460181",
      "lat": 22.6264685,
      "lon": 120.357588
    },
    {
      "name": "興鳳分行",
      "link": "https://www.google.com.tw/maps/place/%E5%90%88%E4%BD%9C%E9%87%91%E5%BA%AB%E9%8A%80%E8%A1%8C/@22.6212983,120.3585415,17z/data=!3m1!4b1!4m5!3m4!1s0x346e1b4699d6bc5b:0x2f3a1bb83ceb188d!8m2!3d22.6212983!4d120.3607302",
      "address": "高雄市鳳山區中山路32號",
      "tel": "(07)7453101",
      "lat": 22.6212983,
      "lon": 120.3585415
    },
    {
      "name": "鳳松分行",
      "link": "https://www.google.com.tw/maps/place/830%E9%AB%98%E9%9B%84%E5%B8%82%E9%B3%B3%E5%B1%B1%E5%8D%80%E9%B3%B3%E6%9D%BE%E8%B7%AF3-4%E8%99%9F/@22.6318932,120.3608713,3a,75y,286.44h,90t/data=!3m7!1e1!3m5!1shTVHW_6O5u04Xrg9-Lrhog!2e0!6s%2F%2Fgeo3.ggpht.com%2Fcbk%3F",
      "address": "高雄市鳳山區鳳松路3之4號",
      "tel": "(07)7471131",
      "lat": 22.6318932,
      "lon": 120.3608713
    },
    {
      "name": "五甲分行",
      "link": "https://www.google.com.tw/maps/place/830%E9%AB%98%E9%9B%84%E5%B8%82%E9%B3%B3%E5%B1%B1%E5%8D%80%E4%BA%94%E7%94%B2%E4%BA%8C%E8%B7%AF164%E8%99%9F/@22.6018563,120.3412173,3a,75y,335.47h,90t/data=!3m7!1e1!3m5!1sxeXQPN4MFdyW790qKXM5NA!2e0!6s%2F%2Fgeo3.ggpht.com",
      "address": "高雄市鳳山區五甲二路164號",
      "tel": "(07)7172250",
      "lat": 22.6018563,
      "lon": 120.3412173
    },
    {
      "name": "大發分行",
      "link": "https://www.google.com.tw/maps/place/831%E9%AB%98%E9%9B%84%E5%B8%82%E5%A4%A7%E5%AF%AE%E5%8D%80%E9%B3%B3%E6%9E%97%E4%B8%89%E8%B7%AF345%E8%99%9F/@22.6017301,120.3977668,3a,75y,232.14h,90t/data=!3m7!1e1!3m5!1skfGFbyjBTx6IDwf8I0oS1Q!2e0!6s%2F%2Fgeo2.ggpht.com",
      "address": "高雄市大寮區鳳林三路345號",
      "tel": "(07)7830589",
      "lat": 22.6017301,
      "lon": 120.3977668
    },
    {
      "name": "林園分行",
      "link": "https://www.google.com.tw/maps/place/832%E9%AB%98%E9%9B%84%E5%B8%82%E6%9E%97%E5%9C%92%E5%8D%80%E6%9E%97%E5%9C%92%E5%8C%97%E8%B7%AF200%E8%99%9F/@22.5079031,120.3927636,17z/data=!3m1!4b1!4m5!3m4!1s0x3471e27ed6446deb:0xa68cb1ce6d1cf8ea!8m2!3d22.5079031!4d120",
      "address": "高雄市林園區林園北路200號",
      "tel": "(07)6416171",
      "lat": 22.5079031,
      "lon": 120.3927636
    },
    {
      "name": "仁美分行",
      "link": "https://www.google.com.tw/maps/place/833%E9%AB%98%E9%9B%84%E5%B8%82%E9%B3%A5%E6%9D%BE%E5%8D%80%E5%AD%B8%E5%A0%82%E8%B7%AF87%E8%99%9F/@22.6583934,120.3924607,3a,75y,190.94h,90t/data=!3m7!1e1!3m5!1s2iArm8c1t8a-naQolV1IHg!2e0!6s%2F%2Fgeo2.ggpht.com%2Fcbk%3Fp",
      "address": "高雄市鳥松區學堂路87之2號",
      "tel": "(07)7321370",
      "lat": 22.6583934,
      "lon": 120.3924607
    },
    {
      "name": "大樹分行",
      "link": "https://www.google.com.tw/maps/place/840%E9%AB%98%E9%9B%84%E5%B8%82%E5%A4%A7%E6%A8%B9%E5%8D%80%E4%B8%AD%E8%88%88%E6%9D%B1%E8%B7%AF2%E8%99%9F/@22.6911502,120.4331184,3a,75y,93.81h,90t/data=!3m6!1e1!3m4!1sxfv2K5bdiXEJ-LfgOImHVQ!2e0!7i13312!8i6656!4m5!3m4!1s",
      "address": "高雄市大樹區中興東路2之8號",
      "tel": "(07)6517726",
      "lat": 22.6911502,
      "lon": 120.4331184
    },
    {
      "name": "旗山分行",
      "link": "https://www.google.com.tw/maps/place/%E5%90%88%E4%BD%9C%E9%87%91%E5%BA%AB%E9%8A%80%E8%A1%8C/@22.8879661,120.4807661,17z/data=!3m1!4b1!4m5!3m4!1s0x346e6a52beb10fd7:0xa25d953b62845d58!8m2!3d22.8879661!4d120.4829548",
      "address": "高雄市旗山區華中街3號",
      "tel": "(07)6622333",
      "lat": 22.8879661,
      "lon": 120.4807661
    },
    {
      "name": "美濃分行",
      "link": "https://www.google.com.tw/maps/place/843%E9%AB%98%E9%9B%84%E5%B8%82%E7%BE%8E%E6%BF%83%E5%8D%80%E6%B3%B0%E5%AE%89%E8%B7%AF172%E8%99%9F/@22.9026136,120.5422849,3a,15y,180.97h,96.72t/data=!3m7!1e1!3m5!1sgqoYXR83qlEEoZTb-T7vvA!2e0!6s%2F%2Fgeo2.ggpht.com%2Fcbk",
      "address": "高雄市美濃區泰安路172之2號",
      "tel": "(07)6816101",
      "lat": 22.9026136,
      "lon": 120.5422849
    }
  ],
  "屏東縣": [
    {
      "name": "屏東分行",
      "link": "https://www.google.com.tw/maps/place/900%E5%B1%8F%E6%9D%B1%E7%B8%A3%E5%B1%8F%E6%9D%B1%E5%B8%82%E4%B8%AD%E6%AD%A3%E8%B7%AF42%E8%99%9F/@22.672699,120.4890984,17z/data=!4m5!3m4!1s0x346e1784c8604415:0x36625578100b8de1!8m2!3d22.6727626!4d120.4892234",
      "address": "屏東縣屏東市中正路42號",
      "tel": "(08)7343611",
      "lat": 22.672699,
      "lon": 120.4890984
    },
    {
      "name": "屏南分行",
      "link": "https://www.google.com.tw/maps/place/900%E5%B1%8F%E6%9D%B1%E7%B8%A3%E5%B1%8F%E6%9D%B1%E5%B8%82%E6%B0%91%E7%94%9F%E8%B7%AF287%E8%99%9F/@22.6700319,120.4896093,17z/data=!3m1!4b1!4m5!3m4!1s0x346e1785a0682b93:0x71564651528d859e!8m2!3d22.670027!4d120.491798",
      "address": "屏東縣屏東市民生路287號",
      "tel": "(08)7326391",
      "lat": 22.6700319,
      "lon": 120.4896093
    },
    {
      "name": "萬丹分行",
      "link": "https://www.google.com.tw/maps/place/913%E5%B1%8F%E6%9D%B1%E7%B8%A3%E8%90%AC%E4%B8%B9%E9%84%89%E4%B8%AD%E8%88%88%E8%B7%AF%E4%BA%8C%E6%AE%B5661%E8%99%9F/@22.5840419,120.4866363,17z/data=!3m1!4b1!4m5!3m4!1s0x346e18d13c30c915:0x9c17e6fe480ceb47!8m2!3d22.5840",
      "address": "屏東縣萬丹鄉中興路二段661號",
      "tel": "(08)7779311",
      "lat": 22.5840419,
      "lon": 120.4866363
    },
    {
      "name": "社皮分行",
      "link": "https://www.google.com.tw/maps/place/913%E5%B1%8F%E6%9D%B1%E7%B8%A3%E8%90%AC%E4%B8%B9%E9%84%89%E7%A4%BE%E7%9A%AE%E8%B7%AF%E4%BA%8C%E6%AE%B5500%E8%99%9F/@22.6138607,120.4662962,17z/data=!4m5!3m4!1s0x346e190fdb785d77:0xde1f1ac97a9f832!8m2!3d22.6138558!4d120",
      "address": "屏東縣萬丹鄉社皮路二段500號",
      "tel": "(08)7071578",
      "lat": 22.6138607,
      "lon": 120.4662962
    },
    {
      "name": "潮州分行",
      "link": "https://www.google.com.tw/maps/place/920%E5%B1%8F%E6%9D%B1%E7%B8%A3%E6%BD%AE%E5%B7%9E%E9%8E%AE%E6%96%B0%E7%94%9F%E8%B7%AF91%E8%99%9F/@22.5505153,120.5363412,17z/data=!3m1!4b1!4m5!3m4!1s0x346e21e5e285d1e1:0xe53644802b394058!8m2!3d22.5505104!4d120.5385299",
      "address": "屏東縣潮州鎮新生路91之1號",
      "tel": "(08)7883101",
      "lat": 22.5505153,
      "lon": 120.5363412
    },
    {
      "name": "東港分行",
      "link": "https://www.google.com.tw/maps/place/928%E5%B1%8F%E6%9D%B1%E7%B8%A3%E6%9D%B1%E6%B8%AF%E9%8E%AE%E5%85%89%E5%BE%A9%E8%B7%AF%E4%B8%80%E6%AE%B5186%E8%99%9F/@22.4701499,120.4554587,17z/data=!3m1!4b1!4m5!3m4!1s0x3471e196127052cf:0x7547fdddd31f0fac!8m2!3d22.4701",
      "address": "屏東縣東港鎮光復路一段186號",
      "tel": "(08)8353701",
      "lat": 22.4701499,
      "lon": 120.4554587
    },
    {
      "name": "枋寮分行",
      "link": "https://www.google.com.tw/maps/place/940%E5%B1%8F%E6%9D%B1%E7%B8%A3%E6%9E%8B%E5%AF%AE%E9%84%89%E4%B8%AD%E5%B1%B1%E8%B7%AF255%E8%99%9F/@22.3679751,120.5913078,17z/data=!4m5!3m4!1s0x3471dc3c2f33f267:0x7b05df992e226666!8m2!3d22.3679702!4d120.5934965",
      "address": "屏東縣枋寮鄉中山路255之2號",
      "tel": "(08)878-7611",
      "lat": 22.3679751,
      "lon": 120.5913078
    }
  ]
}
